list_date,list_price,sold_date,sold_price,beds,baths,sqft,lot_sqft,city,street,zip,latitude,longitude,days_on_market,price_per_sqft,beds_baths_ratio,month_listed,year_listed
2025-01-31,209900.0,2025-03-31,209900,2.0,1.5,904.0,4704.0,Saint Paul,868 Algonquin Ave,55119,44.967562,-93.017718,59,232.19026548672565,0.8,1,2025
2024-11-15,374900.0,2024-12-13,391000,3.0,1.5,1534.0,4966.0,Saint Paul,1246 Bayard Ave,55116,44.922167,-93.152861,28,244.39374185136896,1.2,11,2024
2024-12-20,275000.0,2025-01-10,266800,3.0,1.0,1297.0,6534.0,Saint Paul,967 California Ave W,55117,44.991249,-93.140914,21,212.02775636083268,1.5,12,2024
2025-01-23,500000.0,2025-02-28,505003,3.0,2.0,1636.0,5009.0,Saint Paul,2098 Pinehurst Ave,55116,44.918628,-93.189055,36,305.6234718826406,1.0,1,2025
2025-03-18,425000.0,2025-04-08,475000,4.0,1.0,1750.0,7362.0,Saint Paul,2129 Sargent Ave,55105,44.935472,-93.190323,21,242.85714285714286,2.0,3,2025
2024-09-03,189900.0,2024-12-11,189900,2.0,1.0,832.0,4792.0,Saint Paul,536 Edmund Ave,55103,44.958192,-93.122838,99,228.24519230769232,1.0,9,2024
2024-12-01,324900.0,2025-01-31,325000,3.0,1.5,2185.0,6055.0,Saint Paul,627-629 Minnehaha Ave E,55130,44.963264,-93.074138,61,148.69565217391303,1.2,12,2024
2024-11-19,214900.0,2025-01-09,210000,2.0,1.0,926.0,5001.0,Saint Paul,1631 Woodbridge St,55117,44.990397,-93.108765,51,232.07343412526998,1.0,11,2024
2024-11-25,375000.0,2025-01-03,365000,3.0,2.5,1435.0,5227.0,Saint Paul,1659 Fernwood St,55108,44.991212,-93.151727,39,261.3240418118467,0.8571428571428571,11,2024
2024-10-18,279000.0,2025-01-07,279000,3.0,2.0,1488.0,4879.0,Saint Paul,916 Ivy Ave E,55106,44.980881,-93.061875,81,187.5,1.0,10,2024
2025-03-20,319900.0,2025-04-18,310000,4.0,2.0,1643.0,5358.0,Saint Paul,1517 Dale St N,55117,44.986988,-93.126544,29,194.70480827754108,1.3333333333333333,3,2025
2024-10-04,259900.0,2025-01-10,260000,3.0,2.0,1141.0,6186.0,Saint Paul,46 Orange Ave W,55117,44.979017,-93.102185,98,227.7826468010517,1.0,10,2024
2025-01-25,264900.0,2025-02-28,285000,2.0,1.0,1138.0,7841.0,Saint Paul,994 Chatsworth St N,55103,44.971162,-93.141206,34,232.7768014059754,1.0,1,2025
2024-10-24,585000.0,2024-12-12,575000,5.0,2.5,3945.0,10629.0,Saint Paul,1893 Marshall Ave,55104,44.948731,-93.18017,49,148.2889733840304,1.4285714285714286,10,2024
2025-04-15,525000.0,2025-04-29,575000,3.0,2.0,2593.0,5401.0,Saint Paul,2103 Hartford Ave,55116,44.92368,-93.189167,14,202.4681835711531,1.0,4,2025
2025-01-02,429900.0,2025-02-28,429900,3.0,2.0,1761.0,6098.0,Saint Paul,639 Pascal St S,55116,44.922181,-93.162293,57,244.12265758091993,1.0,1,2025
2025-04-03,225000.0,2025-05-07,225000,2.0,1.0,885.0,5009.0,Saint Paul,928 Lawson Ave E,55106,44.971864,-93.061378,34,254.23728813559322,1.0,4,2025
2025-04-18,289900.0,2025-05-12,296000,3.0,1.0,1400.0,6665.0,Saint Paul,1531 Alameda St,55117,44.987229,-93.130339,24,207.07142857142858,1.5,4,2025
2025-02-18,825000.0,2025-03-31,825000,6.0,3.5,3113.0,6403.0,Saint Paul,496 Marshall Ave,55102,44.948277,-93.121098,41,265.017667844523,1.3333333333333333,2,2025
2024-11-11,165000.0,2025-01-17,165000,2.0,1.0,768.0,4400.0,Saint Paul,1166 Jackson St,55117,44.976258,-93.096047,67,214.84375,1.0,11,2024
2024-10-11,240000.0,2024-12-16,260000,4.0,2.0,1830.0,6621.0,Saint Paul,401 Johnson Pkwy,55106,44.954149,-93.049324,66,131.14754098360655,1.3333333333333333,10,2024
2024-10-10,293000.0,2024-12-11,287000,3.0,1.0,1340.0,5184.0,Saint Paul,1362 Stanford Ave,55105,44.932157,-93.157814,62,218.65671641791045,1.5,10,2024
2025-02-13,489900.0,2025-03-31,532000,3.0,2.0,1795.0,5580.0,Saint Paul,1469 Osceola Ave,55105,44.936343,-93.162341,46,272.924791086351,1.0,2,2025
2024-10-28,550000.0,2024-12-17,563000,3.0,3.0,3404.0,12824.0,Saint Paul,860 Ivy Ave W,55117,44.980805,-93.136377,50,161.57461809635723,0.75,10,2024
2024-07-26,219999.0,2024-12-11,220000,3.0,1.0,1321.0,4922.0,Saint Paul,691 Edmund Ave,55104,44.958697,-93.129405,138,166.53974261922787,1.5,7,2024
2024-11-13,475000.0,2025-01-21,475000,3.0,2.0,1507.0,4356.0,Saint Paul,1126 Edgcumbe Rd,55105,44.930251,-93.147762,69,315.19575315195755,1.0,11,2024
2024-11-04,549000.0,2024-12-17,549000,2.0,2.0,1795.0,8973.0,Saint Paul,2150 Niles Ave,55116,44.924982,-93.191331,43,305.84958217270196,0.6666666666666666,11,2024
2025-01-15,200000.0,2025-01-31,200000,3.0,1.0,1236.0,4574.0,Saint Paul,862 Smith Ave S,55107,44.92015,-93.101468,16,161.81229773462783,1.5,1,2025
2025-02-03,275000.0,2025-03-07,315000,4.0,1.5,1897.0,7841.0,Saint Paul,2139 Cottage Ave E,55119,44.983195,-93.010337,32,144.96573537163943,1.6,2,2025
2025-01-09,285000.0,2025-02-27,290000,3.0,1.0,1251.0,6970.0,Saint Paul,2149 Fremont Ave E,55119,44.957893,-93.009827,49,227.81774580335733,1.5,1,2025
2024-09-26,249900.0,2024-12-06,260000,3.0,1.0,1365.0,5227.0,Saint Paul,682 Cottage Ave E,55106,44.982603,-93.071865,71,183.07692307692307,1.5,9,2024
2024-10-22,250000.0,2024-12-31,255500,5.0,2.0,1954.0,3093.0,Saint Paul,415 Mount Ida St,55130,44.962476,-93.083099,70,127.94268167860798,1.6666666666666667,10,2024
2024-11-19,419500.0,2025-01-07,410000,3.0,2.0,2708.0,9888.0,Saint Paul,1311 Van Buren Ave,55104,44.9623,-93.155623,49,154.91137370753324,1.0,11,2024
2025-02-03,259900.0,2025-03-21,226000,3.0,1.0,1702.0,5227.0,Saint Paul,1935 Cottage Ave E,55119,44.983178,-93.018649,46,152.7027027027027,1.5,2,2025
2025-03-08,509900.0,2025-04-24,485000,4.0,1.5,2360.0,6229.0,Saint Paul,1154 Ivy Ave E,55106,44.980697,-93.052195,47,216.0593220338983,1.6,3,2025
2024-07-12,1350000.0,2025-01-17,1266455,5.0,4.5,5991.0,24916.0,Saint Paul,1027 Summit Ave,55105,44.941908,-93.143428,189,225.33800701051578,0.9090909090909091,7,2024
2025-01-22,389900.0,2025-02-21,375000,2.0,1.5,1048.0,7449.0,Saint Paul,1802 Lincoln Ave,55105,44.938815,-93.176476,30,372.0419847328244,0.8,1,2025
2024-06-03,329900.0,2025-01-20,329900,3.0,3.0,1248.0,4639.0,Saint Paul,852 James Ave,55102,44.927482,-93.136055,231,264.34294871794873,0.75,6,2024
2024-12-30,539900.0,2025-02-28,595000,4.0,2.5,1775.0,4356.0,Saint Paul,1186 Hague Ave,55104,44.945576,-93.150369,60,304.16901408450707,1.1428571428571428,12,2024
2024-10-19,345000.0,2025-03-03,347000,3.0,1.0,1506.0,6534.0,Saint Paul,565 Frontenac Pl,55104,44.957213,-93.205666,135,229.08366533864543,1.5,10,2024
2024-11-06,1075000.0,2025-03-17,1060000,4.0,3.5,3565.0,4835.0,Saint Paul,1439 Eleanor Ave,55116,44.954445,-93.091301,131,301.5427769985975,0.8888888888888888,11,2024
2025-01-20,334900.0,2025-03-03,334900,3.0,2.0,2075.0,4879.0,Saint Paul,1132 Edmund Ave,55104,44.958188,-93.148082,42,161.3975903614458,1.0,1,2025
2024-12-16,1200000.0,2025-01-03,1200000,6.0,5.0,5955.0,8843.0,Saint Paul,916 Lincoln Ave,55105,44.93859,-93.138734,18,201.51133501259446,1.0,12,2024
2025-02-16,269900.0,2025-03-27,269900,3.0,2.5,1726.0,5576.0,Saint Paul,718 Bellows St,55107,44.924359,-93.092332,39,156.3731170336037,0.8571428571428571,2,2025
2025-02-11,199000.0,2025-03-20,220000,2.0,1.0,900.0,7187.0,Saint Paul,1732 Beech St,55106,44.96195,-93.02717,37,221.11111111111111,1.0,2,2025
2025-02-14,189900.0,2025-04-02,200000,2.0,1.0,1104.0,4879.0,Saint Paul,1160 Beech St,55106,44.961921,-93.051583,47,172.0108695652174,1.0,2,2025
2025-03-12,340000.0,2025-04-04,378500,3.0,2.0,2062.0,3920.0,Saint Paul,1168 Lexington Pkwy N,55103,44.976473,-93.146104,23,164.88845780795344,1.0,3,2025
2024-11-14,199900.0,2025-02-07,190000,3.0,2.0,1078.0,9757.0,Saint Paul,732 Burr St,55130,44.963353,-93.079547,85,185.43599257884972,1.0,11,2024
2024-11-04,315000.0,2025-03-17,325000,3.0,2.0,1353.0,9601.0,Saint Paul,149 Wyoming St E,55107,44.920673,-93.078969,133,232.8159645232816,1.0,11,2024
2024-12-13,289900.0,2025-01-27,284000,3.0,2.0,2067.0,4835.0,Saint Paul,1636 W Breda Ave,55108,44.976139,-93.169315,45,140.25157232704402,1.0,12,2024
2025-01-17,375000.0,2025-02-26,391000,3.0,2.5,1666.0,6098.0,Saint Paul,1807 Montreal Ave,55116,44.912807,-93.176427,40,225.09003601440577,0.8571428571428571,1,2025
2025-01-24,214900.0,2025-03-03,221400,2.0,1.0,878.0,4704.0,Saint Paul,1236 Albemarle St,55117,44.97841,-93.106851,38,244.7608200455581,1.0,1,2025
2024-09-24,124995.0,2024-12-20,115000,2.0,1.0,908.0,4966.0,Saint Paul,450 Forest St,55106,44.955196,-93.060687,87,137.65969162995594,1.0,9,2024
2024-10-18,350000.0,2024-12-05,348500,3.0,2.0,1788.0,4530.0,Saint Paul,804 Manomin Ave,55107,44.921897,-93.100275,48,195.74944071588368,1.0,10,2024
2024-10-29,250000.0,2024-12-13,248000,4.0,2.0,1655.0,4661.0,Saint Paul,663 Jefferson Ave,55102,44.930907,-93.127672,45,151.05740181268882,1.3333333333333333,10,2024
2024-09-19,284900.0,2025-01-03,275000,4.0,2.0,1433.0,4400.0,Saint Paul,984 Jackson St,55117,44.970805,-93.09603,106,198.81367759944172,1.3333333333333333,9,2024
2024-10-10,289900.0,2025-01-16,289900,3.0,1.0,1646.0,5881.0,Saint Paul,564 Larpenteur Ave E,55117,44.9917,-93.076888,98,176.12393681652492,1.5,10,2024
2025-02-20,425000.0,2025-04-01,422500,3.0,2.0,1500.0,4966.0,Saint Paul,1282 Jefferson Ave,55105,44.930301,-93.15447,40,283.3333333333333,1.0,2,2025
2024-09-13,275000.0,2024-12-06,276000,3.0,2.0,1665.0,8756.0,Saint Paul,518 Idaho Ave E,55130,44.989797,-93.078936,84,165.16516516516518,1.0,9,2024
2024-11-27,225000.0,2024-12-30,226500,2.0,1.0,872.0,6839.0,Saint Paul,2102 4th St E,55119,44.958275,-93.011803,33,258.0275229357798,1.0,11,2024
2024-12-05,325000.0,2025-01-08,330000,3.0,1.0,1367.0,6708.0,Saint Paul,1820 Englewood Ave,55104,44.963509,-93.177611,34,237.7468910021946,1.5,12,2024
2025-02-18,382500.0,2025-03-31,382500,3.0,1.5,1568.0,6098.0,Saint Paul,1934 Dorothea Ave,55116,44.90543,-93.181659,41,243.94132653061226,1.2,2,2025
2024-10-08,255000.0,2025-01-24,237000,3.0,2.0,2010.0,7362.0,Saint Paul,1261 Beech St,55106,44.962455,-93.047243,108,126.86567164179104,1.0,10,2024
2024-11-28,290000.0,2025-01-10,302500,3.0,2.0,1697.0,7100.0,Saint Paul,410 Hoyt Ave E,55130,44.987945,-93.083217,43,170.8898055391868,1.0,11,2024
2025-03-26,225000.0,2025-04-30,250000,3.0,1.0,1005.0,10149.0,Saint Paul,1734 Bush Ave,55106,44.964669,-93.027126,35,223.88059701492537,1.5,3,2025
2024-10-11,339500.0,2025-03-06,330000,5.0,1.5,1893.0,5358.0,Saint Paul,1699 Thomas Ave,55104,44.959531,-93.171906,146,179.34495509772847,2.0,10,2024
2025-01-07,285000.0,2025-03-06,295000,2.0,2.0,1176.0,7536.0,Saint Paul,1067 Argyle St,55103,44.97325,-93.143075,58,242.3469387755102,0.6666666666666666,1,2025
2025-02-15,445000.0,2025-04-03,480022,4.0,3.0,2112.0,4792.0,Saint Paul,855 Tuscarora Ave,55102,44.92353,-93.136083,47,210.70075757575756,1.0,2,2025
2024-10-03,240000.0,2025-02-12,247200,3.0,1.0,1500.0,5053.0,Saint Paul,2129 Reaney Ave E,55119,44.964217,-93.010764,132,160.0,1.5,10,2024
2025-02-08,225000.0,2025-03-14,245000,3.0,1.0,1407.0,8276.0,Saint Paul,2095 Jessamine Ave E,55119,44.974526,-93.011739,34,159.9147121535181,1.5,2,2025
2024-12-02,509900.0,2025-01-15,510000,4.0,2.5,2205.0,7797.0,Saint Paul,2029 Morgan Ave,55116,44.9047,-93.185762,44,231.24716553287982,1.1428571428571428,12,2024
2025-02-11,595000.0,2025-02-27,651000,5.0,2.5,2700.0,5793.0,Saint Paul,495 Cretin Ave S,55116,44.926595,-93.192821,16,220.37037037037038,1.4285714285714286,2,2025
2024-11-15,310000.0,2024-12-16,315000,4.0,2.0,1809.0,4922.0,Saint Paul,1987 Maryland Ave E,55119,44.977756,-93.016432,31,171.36539524599226,1.3333333333333333,11,2024
2024-12-03,130000.0,2025-01-09,113000,2.0,1.0,1160.0,2474.0,Saint Paul,912 Farrington St,55117,44.968716,-93.113266,37,112.06896551724138,1.0,12,2024
2024-10-17,565000.0,2025-03-21,555000,5.0,3.0,2733.0,5227.0,Saint Paul,552 Brimhall St,55116,44.924801,-93.165368,155,206.73252835711673,1.25,10,2024
2025-03-06,650000.0,2025-04-09,680000,3.0,2.5,2266.0,6229.0,Saint Paul,1971 Bayard Ave,55116,44.92233,-93.183636,34,286.84907325684026,0.8571428571428571,3,2025
2024-10-03,285000.0,2024-12-31,280000,3.0,1.0,1418.0,10019.0,Saint Paul,663 Idaho Ave E,55106,44.990375,-93.072565,89,200.9873060648801,1.5,10,2024
2024-11-14,165000.0,2024-12-18,180000,3.0,1.0,997.0,4922.0,Saint Paul,1378 Lafond Ave,55104,44.95996,-93.158406,34,165.49648946840523,1.5,11,2024
2024-10-21,619000.0,2025-02-26,590000,5.0,3.0,2601.0,4792.0,Saint Paul,1133 Palace Ave,55105,44.929007,-93.147987,128,237.98539023452517,1.25,10,2024
2025-02-22,449900.0,2025-04-10,470000,3.0,2.0,1642.0,5968.0,Saint Paul,884 Ashland Ave,55104,44.943625,-93.137483,47,273.9951278928136,1.0,2,2025
2025-02-20,349900.0,2025-04-04,350000,3.0,1.0,1386.0,6970.0,Saint Paul,1131 Norbert Ln,55116,44.907666,-93.182033,43,252.45310245310245,1.5,2,2025
2024-10-16,237000.0,2025-02-14,237000,3.0,2.0,1200.0,4792.0,Saint Paul,984 Cook Ave E,55106,44.972759,-93.058994,121,197.5,1.0,10,2024
2024-11-15,465000.0,2024-12-20,465000,4.0,2.5,2284.0,9191.0,Saint Paul,117 Elizabeth St W,55107,44.927367,-93.090412,35,203.59019264448335,1.1428571428571428,11,2024
2024-09-20,309900.0,2024-12-23,273000,6.0,3.0,2374.0,7144.0,Saint Paul,234 Kennard St,55106,44.946925,-93.029886,94,130.5391743892165,1.5,9,2024
2025-02-14,679000.0,2025-04-15,692580,4.0,4.0,3556.0,4792.0,Saint Paul,397 Ashland Ave,55102,44.944575,-93.116781,60,190.9448818897638,0.8,2,2025
2025-03-15,209900.0,2025-04-29,216500,3.0,1.0,1280.0,5053.0,Saint Paul,702 Rose Ave E,55106,44.976316,-93.070799,45,163.984375,1.5,3,2025
2024-11-19,220000.0,2025-01-08,221000,2.0,1.0,1560.0,7492.0,Saint Paul,2056 Magnolia Ave E,55119,44.972963,-93.013565,50,141.02564102564102,1.0,11,2024
2024-10-31,389900.0,2024-12-10,389900,3.0,2.0,2005.0,5227.0,Saint Paul,1591 Huron St,55108,44.989143,-93.155659,40,194.4638403990025,1.0,10,2024
2025-01-22,298950.0,2025-02-28,310000,3.0,2.0,1736.0,5184.0,Saint Paul,344 Page St E,55107,44.924588,-93.070872,37,172.20622119815667,1.0,1,2025
2025-03-07,315000.0,2025-04-18,330000,4.0,2.5,2336.0,5053.0,Saint Paul,277 Winifred St E,55107,44.930319,-93.072462,42,134.8458904109589,1.1428571428571428,3,2025
2025-01-14,325000.0,2025-02-19,335000,3.0,2.0,1400.0,6229.0,Saint Paul,222 Congress St W,55107,44.931972,-93.094911,36,232.14285714285714,1.0,1,2025
2024-12-18,235000.0,2025-01-17,270000,4.0,1.0,1483.0,6142.0,Saint Paul,1098 Margaret St,55106,44.961008,-93.0541,30,158.46257585974377,2.0,12,2024
2024-10-17,199900.0,2024-12-20,206000,3.0,1.0,1357.0,5881.0,Saint Paul,1609 7th St E,55106,44.966998,-93.032407,64,147.310243183493,1.5,10,2024
2024-12-11,229900.0,2025-01-21,230000,2.0,1.0,1128.0,6360.0,Saint Paul,2067 Fremont Ave E,55119,44.95789,-93.013125,41,203.81205673758865,1.0,12,2024
2025-01-30,324800.0,2025-03-10,340000,3.0,2.0,1565.0,5750.0,Saint Paul,567 Pelham Blvd,55104,44.957677,-93.200585,39,207.53993610223642,1.0,1,2025
2024-08-22,945000.0,2025-03-13,915000,6.0,3.5,4538.0,15594.0,Saint Paul,794 Linwood Ave,55105,44.934415,-93.133525,203,208.24151608638167,1.3333333333333333,8,2024
2025-03-19,350000.0,2025-05-09,420000,2.0,2.0,1478.0,22433.0,Saint Paul,604 Lexington Pkwy S,55116,44.923217,-93.14592,51,236.8064952638701,0.6666666666666666,3,2025
2025-01-17,250000.0,2025-03-21,250000,4.0,1.5,1885.0,4792.0,Saint Paul,1048 Conway St,55106,44.955605,-93.05628,63,132.6259946949602,1.6,1,2025
2025-02-18,265000.0,2025-03-28,285000,3.0,1.5,1183.0,3659.0,Saint Paul,1415 Taylor Ave W,55104,44.967977,-93.160031,38,224.00676246830093,1.2,2,2025
2025-01-14,500000.0,2025-02-20,550000,3.0,2.0,2047.0,6098.0,Saint Paul,1132 Montana Ave W,55108,44.987206,-93.147689,37,244.2598925256473,1.0,1,2025
2024-10-21,599900.0,2024-12-06,600000,4.0,2.5,2338.0,7841.0,Saint Paul,1924 Pinehurst Ave,55116,44.91862,-93.181599,46,256.58682634730536,1.1428571428571428,10,2024
2024-09-18,190000.0,2024-12-11,183000,2.0,1.0,708.0,5009.0,Saint Paul,1992 Clear Ave E,55119,44.981769,-93.016256,84,268.361581920904,1.0,9,2024
2025-01-29,350000.0,2025-03-04,385900,2.0,1.5,1611.0,7536.0,Saint Paul,1677 Montreal Ave,55116,44.912802,-93.170963,34,217.25636250775915,0.8,1,2025
2025-03-11,550000.0,2025-04-15,600000,4.0,2.5,2150.0,7579.0,Saint Paul,1684 Watson Ave,55116,44.924027,-93.171344,35,255.8139534883721,1.1428571428571428,3,2025
2024-10-26,325000.0,2025-01-31,325000,3.0,2.0,1538.0,5489.0,Saint Paul,403 Arlington Ave W,55117,44.984844,-93.116941,97,211.31339401820546,1.0,10,2024
2025-01-31,355000.0,2025-03-31,363000,2.0,2.0,2050.0,18644.0,Saint Paul,2184 Bonnie Ln,55119,44.90463,-93.007994,59,173.17073170731706,0.6666666666666666,1,2025
2025-02-20,244900.0,2025-04-15,245000,2.0,1.0,680.0,5227.0,Saint Paul,1830 Nebraska Ave E,55119,44.986274,-93.02308,54,360.1470588235294,1.0,2,2025
2025-01-25,475000.0,2025-04-18,444000,5.0,3.0,2780.0,8538.0,Saint Paul,654 Orange Ave E,55106,44.979002,-93.07279,83,170.86330935251797,1.25,1,2025
2024-11-19,269500.0,2025-01-23,255500,3.0,2.0,1772.0,6708.0,Saint Paul,1138 Flandrau St,55106,44.975642,-93.027463,65,152.08803611738148,1.0,11,2024
2024-12-24,309900.0,2025-04-29,305000,3.0,2.0,1934.0,7275.0,Saint Paul,1030 Larpenteur Ave W,55113,44.991636,-93.143661,126,160.23784901758015,1.0,12,2024
2025-02-27,1070000.0,2025-04-18,1050000,4.0,3.5,3541.0,5924.0,Saint Paul,2230 Princeton Ave,55105,44.93586,-93.194864,50,302.17452696978256,0.8888888888888888,2,2025
2025-05-02,1950000.0,2025-05-02,1600000,3.0,2.5,2916.0,45564.0,Saint Paul,1630 Edgcumbe Rd,55116,44.914279,-93.151183,0,668.7242798353909,0.8571428571428571,5,2025
2024-12-09,210000.0,2025-04-30,209000,2.0,1.0,1060.0,5053.0,Saint Paul,1690 Bush Ave,55106,44.964673,-93.029134,142,198.11320754716982,1.0,12,2024
2024-11-19,240000.0,2024-12-30,227450,2.0,1.0,858.0,4792.0,Saint Paul,1528 Canfield Ave,55108,44.979791,-93.164897,41,279.72027972027973,1.0,11,2024
2025-02-06,259900.0,2025-04-25,270000,3.0,1.5,1200.0,4487.0,Saint Paul,1133 Jackson St,55117,44.975118,-93.09673,78,216.58333333333334,1.2,2,2025
2025-01-13,309999.0,2025-02-20,335000,3.0,2.0,1680.0,9278.0,Saint Paul,1668 Clear Ave,55106,44.981782,-93.029915,38,184.5232142857143,1.0,1,2025
2024-11-04,185000.0,2024-12-19,182000,2.0,1.0,682.0,1699.0,Saint Paul,559 Elfelt St,55103,44.958092,-93.112234,45,271.26099706744867,1.0,11,2024
2025-03-06,214900.0,2025-04-14,230000,2.0,2.0,763.0,6098.0,Saint Paul,2072 Case Ave E,55119,44.970036,-93.013181,39,281.651376146789,0.6666666666666666,3,2025
2025-01-27,265000.0,2025-03-12,301000,2.0,1.0,732.0,6752.0,Saint Paul,815 Iowa Ave W,55117,44.989337,-93.13419,44,362.0218579234973,1.0,1,2025
2025-03-04,297000.0,2025-04-10,309000,3.0,2.0,1418.0,4966.0,Saint Paul,781 Howell St N,55104,44.964694,-93.181411,37,209.44992947813822,1.0,3,2025
2024-11-08,265000.0,2025-01-03,270000,3.0,1.5,1277.0,4530.0,Saint Paul,453 Maryland Ave E,55130,44.977626,-93.081493,56,207.51761942051684,1.2,11,2024
2024-11-04,279900.0,2025-02-12,299000,3.0,1.0,1262.0,4617.0,Saint Paul,805 Cherokee Ave,55107,44.921886,-93.104983,100,221.7908082408875,1.5,11,2024
2025-03-29,274900.0,2025-05-23,291278,4.0,2.0,1948.0,5445.0,Saint Paul,1278 Woodbridge St,55117,44.979692,-93.108102,55,141.11909650924025,1.3333333333333333,3,2025
2025-03-14,998500.0,2025-05-15,1052000,4.0,2.5,4201.0,12632.0,Saint Paul,832 Osceola Ave,55105,44.935321,-93.135161,62,237.6815044037134,1.1428571428571428,3,2025
2025-05-27,310000.0,2025-05-27,310000,1.0,2.5,1153.0,4922.0,Saint Paul,1285 Juno Ave,55116,44.926303,-93.154627,0,268.86383347788376,0.2857142857142857,5,2025
2025-05-01,420000.0,2025-05-27,442750,3.0,2.5,1814.0,7492.0,Saint Paul,1381 Nebraska Ave W,55108,44.986696,-93.158433,26,231.53252480705623,0.8571428571428571,5,2025
2025-03-31,265000.0,2025-05-22,270000,2.0,1.0,919.0,5227.0,Saint Paul,985 Seminary Ave,55104,44.965051,-93.141891,52,288.3569096844396,1.0,3,2025
2025-04-24,314900.0,2025-05-27,325000,3.0,1.5,918.0,4966.0,Saint Paul,882 Bayard Ave,55102,44.922127,-93.137404,33,343.02832244008715,1.2,4,2025
2025-04-21,460000.0,2025-05-16,478000,4.0,3.0,2186.0,8930.0,Saint Paul,1464 Laurel Ave,55104,44.944706,-93.162114,25,210.43000914913083,1.0,4,2025
2024-10-21,359000.0,2025-01-24,340000,5.0,2.0,2240.0,6534.0,Saint Paul,1233 Prosperity Ave,55106,44.978727,-93.040014,95,160.26785714285714,1.6666666666666667,10,2024
2025-04-07,439900.0,2025-05-01,453000,4.0,2.0,2107.0,5053.0,Saint Paul,2011 James Ave,55105,44.928224,-93.185334,24,208.78025628856193,1.3333333333333333,4,2025
2025-02-28,330000.0,2025-04-04,339000,3.0,2.0,1524.0,7405.0,Saint Paul,688 Nebraska Ave E,55106,44.986252,-93.071553,35,216.53543307086613,1.0,2,2025
2025-03-25,495000.0,2025-04-25,530000,3.0,2.0,1776.0,4922.0,Saint Paul,1415 Wellesley Ave,55105,44.931769,-93.160044,31,278.7162162162162,1.0,3,2025
2025-04-03,590000.0,2025-05-15,605000,4.0,2.5,2397.0,7492.0,Saint Paul,1914 Selby Ave,55104,44.945891,-93.18135,42,246.1410095953275,1.1428571428571428,4,2025
2025-02-13,750000.0,2025-03-24,765000,3.0,1.5,2670.0,6011.0,Saint Paul,2294 Saint Clair Ave,55105,44.934048,-93.197256,39,280.8988764044944,1.2,2,2025
2025-03-21,159900.0,2025-04-28,165000,1.0,1.0,814.0,4966.0,Saint Paul,622 Wells St,55130,44.967273,-93.074369,38,196.43734643734643,0.5,3,2025
2025-03-20,294900.0,2025-05-05,302000,3.0,2.0,1850.0,5140.0,Saint Paul,1985 4th St E,55119,44.958815,-93.016573,46,159.40540540540542,1.0,3,2025
2025-01-09,299900.0,2025-02-11,333000,3.0,1.5,1637.0,5881.0,Saint Paul,999 Armstrong Ave,55102,44.925317,-93.14238,33,183.20097739767868,1.2,1,2025
2025-03-05,335000.0,2025-04-28,345000,3.0,2.0,1310.0,14549.0,Saint Paul,640 Iowa Ave W,55117,44.98864,-93.127379,54,255.72519083969465,1.0,3,2025
2025-03-06,150000.0,2025-03-26,175000,3.0,1.0,1092.0,4879.0,Saint Paul,109 Geranium Ave W,55117,44.975841,-93.104698,20,137.36263736263737,1.5,3,2025
2025-04-22,210000.0,2025-05-23,215000,3.0,2.0,420.0,4966.0,Saint Paul,768 Magnolia Ave E,55106,44.973629,-93.068103,31,500.0,1.0,4,2025
2025-03-13,250000.0,2025-05-15,265000,3.0,1.0,1226.0,4792.0,Saint Paul,1117 Jenks Ave,55106,44.971497,-93.053479,63,203.9151712887439,1.5,3,2025
2025-03-26,215000.0,2025-05-08,250000,4.0,2.0,1914.0,4487.0,Saint Paul,935 Jenks Ave,55106,44.971484,-93.06122,43,112.33019853709509,1.3333333333333333,3,2025
2025-04-10,350000.0,2025-05-02,359000,3.0,1.5,1168.0,4574.0,Saint Paul,807 Delaware Ave,55107,44.921768,-93.106186,22,299.6575342465753,1.2,4,2025
2025-04-26,150000.0,2025-05-23,150000,3.0,1.0,1415.0,5271.0,Saint Paul,1005 Galtier St,55117,44.971651,-93.11143,27,106.00706713780919,1.5,4,2025
2025-04-18,405900.0,2025-05-27,426000,4.0,2.0,2200.0,6273.0,Saint Paul,84 Hatch Ave W,55117,44.970886,-93.103553,39,184.5,1.3333333333333333,4,2025
2025-02-25,524999.0,2025-03-14,586000,3.0,1.5,1658.0,5009.0,Saint Paul,2152 Berkeley Ave,55105,44.933157,-93.191356,17,316.645958986731,1.2,2,2025
2025-04-22,450000.0,2025-05-14,465000,4.0,2.0,1878.0,4966.0,Saint Paul,1426 Scheffer Ave,55116,44.92128,-93.160505,22,239.61661341853036,1.3333333333333333,4,2025
2025-03-28,374900.0,2025-05-13,385000,3.0,1.5,1800.0,9714.0,Saint Paul,42 Darlene St,55119,44.942275,-93.018525,46,208.27777777777777,1.2,3,2025
2024-10-02,199000.0,2024-12-19,206000,3.0,1.0,1215.0,8015.0,Saint Paul,1159 Seminary Ave,55104,44.965062,-93.148929,78,163.78600823045267,1.5,10,2024
2025-05-02,1300000.0,2025-05-30,1300000,5.0,3.5,5506.0,7144.0,Saint Paul,463 Ashland Ave,55102,44.944695,-93.11967,28,236.1060661096985,1.1111111111111112,5,2025
2025-04-09,199900.0,2025-05-22,209500,1.0,1.0,823.0,4966.0,Saint Paul,408 Erie St,55102,44.929059,-93.121644,43,242.89185905224787,0.5,4,2025
2025-02-13,599900.0,2025-03-17,616500,4.0,2.5,2504.0,5968.0,Saint Paul,1168 Laurel Ave,55104,44.944722,-93.149593,32,239.57667731629394,1.1428571428571428,2,2025
2025-03-10,599900.0,2025-04-14,570000,7.0,3.0,4195.0,16553.0,Saint Paul,2376 Bayless Pl,55114,44.968265,-93.201,35,143.00357568533968,1.75,3,2025
2025-04-23,250000.0,2025-05-27,270000,3.0,1.0,1067.0,5009.0,Saint Paul,1259 Hubbard Ave,55104,44.965922,-93.153301,34,234.30178069353326,1.5,4,2025
2025-02-28,324900.0,2025-05-29,324900,2.0,2.0,1399.0,5837.0,Saint Paul,1952 Field Ave,55116,44.902205,-93.182741,90,232.2373123659757,0.6666666666666666,2,2025
2025-04-28,575000.0,2025-05-29,610000,3.0,2.0,1849.0,4966.0,Saint Paul,880 Osceola Ave,55105,44.935446,-93.137367,31,310.97890751757706,1.0,4,2025
2025-04-21,225000.0,2025-05-29,228500,3.0,1.0,1651.0,6273.0,Saint Paul,1680 Westminster St,55130,44.991658,-93.085934,38,136.28104179285282,1.5,4,2025
2025-04-08,525000.0,2025-05-15,525000,4.0,1.5,2574.0,5968.0,Saint Paul,1688 Laurel Ave,55104,44.944729,-93.171684,37,203.96270396270396,1.6,4,2025
2025-02-12,240000.0,2025-05-16,245500,3.0,2.0,1216.0,4966.0,Saint Paul,873 Ohio St,55107,44.919994,-93.097914,93,197.3684210526316,1.0,2,2025
2025-04-04,199900.0,2025-05-19,210000,3.0,1.0,1166.0,5009.0,Saint Paul,1271 Marion St,55117,44.979539,-93.110102,45,171.4408233276158,1.5,4,2025
2025-04-28,725000.0,2025-05-30,800000,4.0,1.5,2400.0,7362.0,Saint Paul,1281 Como Blvd W,55103,44.979093,-93.143988,32,302.0833333333333,1.6,4,2025
2025-04-01,343000.0,2025-05-30,348000,4.0,1.5,1408.0,4792.0,Saint Paul,709 Stewart Ave,55102,44.922505,-93.129663,59,243.60795454545453,1.6,4,2025
2025-03-04,1050000.0,2025-05-30,1050000,5.0,3.0,3400.0,6752.0,Saint Paul,2238 Riverwood Pl,55104,44.944456,-93.194709,87,308.8235294117647,1.25,3,2025
2025-04-16,219900.0,2025-05-30,224000,3.0,1.0,1152.0,8538.0,Saint Paul,1453 7th St E,55106,44.967,-93.039031,44,190.88541666666666,1.5,4,2025
2025-04-12,539900.0,2025-05-29,570006,5.0,2.0,2200.0,5053.0,Saint Paul,436 Saratoga St S,55105,44.928351,-93.164117,47,245.4090909090909,1.6666666666666667,4,2025
2025-04-07,359900.0,2025-05-30,377000,2.0,2.0,1814.0,7492.0,Saint Paul,594 Clifford St,55104,44.958493,-93.203586,53,198.4013230429989,0.6666666666666666,4,2025
2025-03-13,265000.0,2025-05-30,256000,3.0,1.5,1212.0,9801.0,Saint Paul,1797 Hyacinth Ave E,55119,44.980473,-93.024451,78,218.64686468646866,1.2,3,2025
2024-10-04,199900.0,2024-12-30,200000,3.0,1.5,1500.0,6708.0,Saint Paul,764 Edmund Ave,55104,44.958175,-93.13248,87,133.26666666666668,1.2,10,2024
2025-04-24,350000.0,2025-06-02,400000,3.0,2.0,1848.0,5271.0,Saint Paul,1511 Osceola Ave,55105,44.936357,-93.163962,39,189.3939393939394,1.0,4,2025
2024-08-01,230000.0,2025-02-03,230000,3.0,2.0,1754.0,5358.0,Saint Paul,287 Cecelia Pl,55105,44.932801,-93.155942,186,131.12884834663626,1.0,8,2024
2025-03-17,489900.0,2025-05-12,472500,3.0,1.5,1796.0,5793.0,Saint Paul,537 Cretin Ave S,55116,44.92536,-93.19282,56,272.7728285077951,1.2,3,2025
2025-04-18,314900.0,2025-05-21,331000,3.0,2.5,2064.0,4617.0,Saint Paul,577 Michigan St,55102,44.93528,-93.123992,33,152.56782945736435,0.8571428571428571,4,2025
2024-05-15,1250000.0,2025-02-28,1200000,4.0,3.5,3766.0,18731.0,Saint Paul,1335 Beechwood Pl,55116,44.915441,-93.15643,289,331.91715347849174,0.8888888888888888,5,2024
2025-02-04,288000.0,2025-03-03,353000,3.0,2.0,1283.0,4966.0,Saint Paul,1757 Englewood Ave,55104,44.964358,-93.174478,27,224.4738893219018,1.0,2,2025
2024-09-06,199000.0,2024-12-27,200000,3.0,1.0,1008.0,3049.0,Saint Paul,806 Agate St,55117,44.965511,-93.093761,112,197.4206349206349,1.5,9,2024
2025-01-27,275000.0,2025-03-03,300000,2.0,1.5,1252.0,6360.0,Saint Paul,480 Orleans St,55107,44.931222,-93.09969,35,219.6485623003195,0.8,1,2025
2025-01-18,300000.0,2025-02-24,290000,3.0,2.0,1504.0,10324.0,Saint Paul,1047 Breen St,55106,44.973039,-93.027041,37,199.46808510638297,1.0,1,2025
2024-10-15,349000.0,2024-12-06,355000,4.0,1.5,2002.0,8102.0,Saint Paul,1547 Hoyt Ave E,55106,44.988643,-93.034986,52,174.32567432567433,1.6,10,2024
2025-03-10,569900.0,2025-04-28,595000,5.0,3.5,2655.0,6186.0,Saint Paul,1766 Sheridan Ave,55116,44.901405,-93.175245,49,214.65160075329567,1.1111111111111112,3,2025
2024-10-23,625000.0,2024-12-12,630000,4.0,2.5,2415.0,7405.0,Saint Paul,297 Saratoga St S,55105,44.932581,-93.164836,50,258.7991718426501,1.1428571428571428,10,2024
2025-02-25,314900.0,2025-04-23,333000,4.0,2.0,1734.0,8102.0,Saint Paul,753 Hall Ave,55107,44.923373,-93.087018,57,181.60322952710496,1.3333333333333333,2,2025
2025-01-09,255000.0,2025-03-18,253000,3.0,1.0,1140.0,5079.0,Saint Paul,1605 Reaney Ave,55106,44.964202,-93.032609,68,223.68421052631578,1.5,1,2025
2025-02-18,485000.0,2025-03-26,500000,4.0,2.0,2302.0,9191.0,Saint Paul,914 Arlington Ave W,55117,44.984322,-93.139046,36,210.6863596872285,1.3333333333333333,2,2025
2025-01-09,219900.0,2025-02-28,219900,2.0,2.0,1408.0,7492.0,Saint Paul,740 Bidwell St,55107,44.923767,-93.090548,50,156.17897727272728,0.6666666666666666,1,2025
2024-09-25,524900.0,2024-12-13,525000,3.0,3.0,2969.0,6273.0,Saint Paul,1828 Montreal Ave,55116,44.91224,-93.177657,79,176.79353317615357,0.75,9,2024
2024-11-15,324999.0,2025-03-11,321000,3.0,1.5,1600.0,7187.0,Saint Paul,2218 Upper Afton Rd E,55119,44.940774,-93.00661,116,203.124375,1.2,11,2024
2025-01-01,275000.0,2025-02-10,276000,3.0,2.0,1676.0,4530.0,Saint Paul,1027 Conway St,55106,44.956105,-93.057127,40,164.08114558472553,1.0,1,2025
2024-09-04,475000.0,2024-12-06,460000,4.0,3.0,1848.0,5532.0,Saint Paul,2169 Watson Ave,55116,44.924673,-93.191885,93,257.034632034632,1.0,9,2024
2025-01-13,280000.0,2025-02-07,280000,4.0,2.0,1606.0,9148.0,Saint Paul,1479 Winthrop St N,55119,44.985749,-93.010495,25,174.34620174346202,1.3333333333333333,1,2025
2025-01-11,225000.0,2025-02-18,225000,3.0,2.0,1354.0,5401.0,Saint Paul,1267 4th St E,55106,44.958847,-93.046924,38,166.17429837518463,1.0,1,2025
2025-02-12,345000.0,2025-03-24,335000,3.0,2.0,1824.0,5968.0,Saint Paul,1868 Wilson Ave,55119,44.953846,-93.02136,40,189.14473684210526,1.0,2,2025
2025-03-12,245000.0,2025-04-18,285000,3.0,2.0,1511.0,4879.0,Saint Paul,1079 Rose Ave E,55106,44.97689,-93.054873,37,162.14427531436135,1.0,3,2025
2025-03-11,260000.0,2025-04-18,258000,2.0,1.0,1085.0,8973.0,Saint Paul,2056 Nokomis Ave,55119,44.966266,-93.014099,38,239.63133640552996,1.0,3,2025
2025-01-23,357500.0,2025-03-18,362500,3.0,1.0,1512.0,4966.0,Saint Paul,1261 Watson Ave,55116,44.924492,-93.153471,54,236.44179894179894,1.5,1,2025
2024-11-07,325000.0,2024-12-06,316000,3.0,2.0,1260.0,5053.0,Saint Paul,1624 Hartford Ave,55116,44.923111,-93.168915,29,257.93650793650795,1.0,11,2024
2024-04-12,1275000.0,2025-01-17,1265000,6.0,5.5,7910.0,10759.0,Saint Paul,485 Summit Ave,55102,44.941659,-93.120488,280,161.18836915297092,0.9230769230769231,4,2024
2025-03-01,199900.0,2025-04-01,210000,2.0,1.0,850.0,4879.0,Saint Paul,1783 Ames Ave,55119,44.972354,-93.024964,31,235.1764705882353,1.0,3,2025
2025-03-20,379900.0,2025-04-25,400000,3.0,1.5,1151.0,6200.0,Saint Paul,1243 Randolph Ave,55105,44.927213,-93.152704,36,330.06081668114683,1.2,3,2025
2025-02-12,279900.0,2025-03-14,277000,4.0,1.0,1560.0,12415.0,Saint Paul,565 Hazel St N,55119,44.958344,-93.020781,30,179.42307692307693,2.0,2,2025
2024-11-15,240000.0,2025-01-21,244000,3.0,2.0,980.0,5140.0,Saint Paul,1915 4th St E,55119,44.958822,-93.019431,67,244.89795918367346,1.0,11,2024
2025-02-21,235000.0,2025-03-25,230000,4.0,2.0,1969.0,6011.0,Saint Paul,422 Minnehaha Ave E,55130,44.962739,-93.082782,32,119.34992381919756,1.3333333333333333,2,2025
2024-11-16,219900.0,2025-02-07,210000,2.0,1.0,1701.0,4792.0,Saint Paul,1191 Maryland Ave E,55106,44.977799,-93.05007,83,129.2768959435626,1.0,11,2024
2025-02-21,297997.0,2025-04-03,305000,4.0,2.0,1800.0,5053.0,Saint Paul,900 Palace Ave,55102,44.928415,-93.138159,41,165.55388888888888,1.3333333333333333,2,2025
2025-01-17,220000.0,2025-02-28,217000,4.0,2.0,1434.0,4792.0,Saint Paul,1222 Minnehaha Ave E,55106,44.962834,-93.049063,42,153.41701534170153,1.3333333333333333,1,2025
2024-09-20,259900.0,2025-02-03,287000,3.0,1.0,1428.0,4792.0,Saint Paul,115 Winifred St W,55107,44.931618,-93.090538,136,182.00280112044817,1.5,9,2024
2025-02-04,260000.0,2025-03-03,286000,2.0,2.0,1271.0,4792.0,Saint Paul,1354 Blair Ave,55104,44.96087,-93.157474,27,204.5633359559402,0.6666666666666666,2,2025
2025-01-10,145000.0,2025-03-07,145000,2.0,1.0,1002.0,4835.0,Saint Paul,355 Burgess St,55117,44.968644,-93.115053,56,144.71057884231536,1.0,1,2025
2025-01-28,359900.0,2025-04-14,359150,3.0,2.0,1420.0,4966.0,Saint Paul,1422 Juliet Ave,55105,44.92944,-93.16035,76,253.45070422535213,1.0,1,2025
2024-01-27,1294349.0,2025-02-28,1269421,5.0,3.5,3547.0,7405.0,Saint Paul,2103 Juliet Ave,55105,44.930033,-93.189158,398,364.9137299126022,1.1111111111111112,1,2024
2024-09-08,164900.0,2024-12-27,165000,4.0,2.0,1742.0,6926.0,Saint Paul,1011 Minnehaha Ave E,55106,44.963315,-93.057829,110,94.66130884041331,1.3333333333333333,9,2024
2024-11-02,269000.0,2024-12-16,275000,3.0,1.0,1250.0,4922.0,Saint Paul,1266 Lafond Ave,55104,44.959984,-93.153617,44,215.2,1.5,11,2024
2025-03-11,1225000.0,2025-04-04,1355000,5.0,3.5,4368.0,9583.0,Saint Paul,501 Mount Curve Blvd,55116,44.92632,-93.195505,24,280.44871794871796,1.1111111111111112,3,2025
2025-02-17,325000.0,2025-04-04,344100,2.0,1.5,1360.0,4356.0,Saint Paul,1185 Randolph Ave,55105,44.927256,-93.149888,46,238.97058823529412,0.8,2,2025
2025-03-26,349900.0,2025-04-30,375000,3.0,2.0,1344.0,4835.0,Saint Paul,970 Carroll Ave,55104,44.950059,-93.141055,35,260.3422619047619,1.0,3,2025
2025-02-05,385000.0,2025-03-14,385000,3.0,1.0,1248.0,5227.0,Saint Paul,1809 Stanford Ave,55105,44.932729,-93.176668,37,308.4935897435897,1.5,2,2025
2025-01-15,224990.0,2025-02-13,234900,3.0,1.5,1380.0,4879.0,Saint Paul,1132 Beech St,55106,44.961915,-93.052513,29,163.03623188405797,1.2,1,2025
2025-01-02,254900.0,2025-02-21,250000,3.0,1.0,1059.0,6098.0,Saint Paul,1941 Hawthorne Ave E,55119,44.978663,-93.018477,50,240.69877242681775,1.5,1,2025
2024-09-18,499900.0,2024-12-20,500000,5.0,3.0,2000.0,5968.0,Saint Paul,1930 Grand Ave,55105,44.939785,-93.181825,93,249.95,1.25,9,2024
2025-01-24,229900.0,2025-02-21,250000,3.0,2.0,1410.0,6578.0,Saint Paul,268 Thomas Ave,55103,44.959119,-93.111393,28,163.04964539007094,1.0,1,2025
2025-01-02,295000.0,2025-02-19,295000,3.0,2.0,1482.0,6534.0,Saint Paul,1504 Fremont Ave,55106,44.957445,-93.03681,48,199.055330634278,1.0,1,2025
2024-07-18,849900.0,2024-12-23,780000,5.0,3.5,3806.0,9365.0,Saint Paul,787 Ridge St,55116,44.917469,-93.15337,158,223.30530740935365,1.1111111111111112,7,2024
2024-10-17,260000.0,2025-01-03,249000,3.0,2.0,1222.0,12763.0,Saint Paul,212 Acker St E,55117,44.963979,-93.091595,78,212.7659574468085,1.0,10,2024
2024-07-11,349900.0,2025-03-11,345000,3.0,2.0,1638.0,3964.0,Saint Paul,62 Pascal St S,55105,44.939606,-93.16163,243,213.6141636141636,1.0,7,2024
2025-02-12,440000.0,2025-03-21,460000,3.0,2.5,2140.0,5968.0,Saint Paul,1447 Portland Ave,55104,44.94319,-93.161235,37,205.60747663551402,0.8571428571428571,2,2025
2024-10-25,260000.0,2025-01-24,262250,2.0,2.0,1447.0,4966.0,Saint Paul,1886 Orange Ave E,55119,44.979049,-93.020854,91,179.6821008984105,0.6666666666666666,10,2024
2024-08-15,345000.0,2024-12-20,335000,4.0,1.5,1830.0,5097.0,Saint Paul,1612 Alameda St,55117,44.989781,-93.129589,127,188.52459016393442,1.6,8,2024
2024-12-07,360000.0,2025-02-03,350000,3.0,2.0,1584.0,5602.0,Saint Paul,1822 Chelton Ave W,55104,44.964492,-93.177595,58,227.27272727272728,1.0,12,2024
2024-11-01,449900.0,2024-12-17,445000,3.0,2.0,1780.0,4966.0,Saint Paul,1727 Eleanor Ave,55116,44.920916,-93.173307,46,252.75280898876406,1.0,11,2024
2024-12-06,224900.0,2025-01-17,240000,3.0,1.5,1064.0,5663.0,Saint Paul,341 Rose Ave E,55130,44.976682,-93.085994,42,211.37218045112783,1.2,12,2024
2025-02-10,345000.0,2025-04-18,350000,4.0,1.5,1950.0,4574.0,Saint Paul,1040 Desoto St,55130,44.972537,-93.0808,67,176.92307692307693,1.6,2,2025
2025-02-05,325000.0,2025-03-11,325000,3.0,2.0,1398.0,5750.0,Saint Paul,679 California Ave W,55117,44.991128,-93.128643,34,232.4749642346209,1.0,2,2025
2025-01-24,300000.0,2025-03-05,320000,3.0,2.0,1604.0,10803.0,Saint Paul,1610 Payne Ave N,55130,44.989769,-93.073323,40,187.03241895261846,1.0,1,2025
2024-12-01,324900.0,2025-03-07,324900,3.0,1.5,2185.0,6055.0,Saint Paul,621-625 Minnehaha Ave E,55130,44.963263,-93.074313,96,148.69565217391303,1.2,12,2024
2025-01-07,475000.0,2025-02-03,517500,3.0,2.0,1685.0,5184.0,Saint Paul,1374 Berkeley Ave,55105,44.933059,-93.158296,27,281.8991097922849,1.0,1,2025
2025-02-26,425000.0,2025-04-25,400000,4.0,1.5,1776.0,5968.0,Saint Paul,1607 Ashland Ave,55104,44.944258,-93.168134,58,239.30180180180182,1.6,2,2025
2025-03-31,399500.0,2025-04-30,425750,3.0,2.0,1339.0,5227.0,Saint Paul,1738 Palace Ave,55105,44.928572,-93.173699,30,298.3569828230022,1.0,3,2025
2024-12-20,175000.0,2025-01-08,168965,3.0,1.0,1152.0,1307.0,Saint Paul,665 Dale St N,55103,44.961408,-93.126591,19,151.90972222222223,1.5,12,2024
2024-10-18,181250.0,2024-12-21,181545,2.0,1.0,730.0,4530.0,Saint Paul,1793 Arlington Ave E,55119,44.984982,-93.024469,64,248.2876712328767,1.0,10,2024
2025-03-11,194900.0,2025-04-30,194900,3.0,1.0,1221.0,4530.0,Saint Paul,1014 Fremont Ave,55106,44.9574,-93.057714,50,159.62325962325963,1.5,3,2025
2025-03-20,525000.0,2025-04-30,560000,3.0,2.5,1917.0,5358.0,Saint Paul,277 Cecelia Pl,55105,44.933031,-93.155942,41,273.86541471048514,0.8571428571428571,3,2025
2025-02-17,230000.0,2025-03-27,240000,3.0,1.0,1534.0,10019.0,Saint Paul,1946 Nortonia Ave,55119,44.964342,-93.018325,38,149.9348109517601,1.5,2,2025
2025-03-26,225000.0,2025-05-02,238000,2.0,1.0,870.0,3790.0,Saint Paul,1540 Iglehart Ave,55104,44.94911,-93.165175,37,258.62068965517244,1.0,3,2025
2025-03-14,500000.0,2025-04-18,500000,4.0,3.0,2250.0,7405.0,Saint Paul,618 Brimhall St,55116,44.922853,-93.165363,35,222.22222222222223,1.0,3,2025
2024-09-12,299900.0,2024-12-31,295900,3.0,1.0,1632.0,5489.0,Saint Paul,1121 Suburban Ave,55106,44.949843,-93.052951,110,183.76225490196077,1.5,9,2024
2024-12-05,239900.0,2025-03-04,232400,3.0,1.0,967.0,5184.0,Saint Paul,1394 Furness Pkwy,55119,44.983271,-93.01633,89,248.08686659772493,1.5,12,2024
2025-02-26,320000.0,2025-04-24,320000,3.0,1.5,1330.0,6490.0,Saint Paul,562 Ohio St,55107,44.929151,-93.097379,57,240.6015037593985,1.2,2,2025
2025-03-11,415000.0,2025-04-07,425000,3.0,3.0,1841.0,5184.0,Saint Paul,1569 Fernwood St,55108,44.988638,-93.151772,27,225.42096686583378,0.75,3,2025
2024-09-30,384900.0,2024-12-04,390000,2.0,2.0,1537.0,5663.0,Saint Paul,1721 Dayton Ave,55104,44.947657,-93.172971,65,250.42290175666884,0.6666666666666666,9,2024
2024-12-05,385000.0,2025-01-31,370000,4.0,2.0,2000.0,4966.0,Saint Paul,719 Case Ave,55106,44.970527,-93.07021,57,192.5,1.3333333333333333,12,2024
2024-11-30,600000.0,2025-02-14,685000,4.0,3.0,2039.0,4879.0,Saint Paul,2096 Goodrich Ave,55105,44.937699,-93.188966,76,294.2618930848455,1.0,11,2024
2024-10-21,144900.0,2025-03-03,135000,1.0,1.0,546.0,4922.0,Saint Paul,1684 Hyacinth Ave E,55106,44.979968,-93.029246,133,265.38461538461536,0.5,10,2024
2025-02-14,259900.0,2025-03-20,269000,2.0,1.0,809.0,34848.0,Saint Paul,2023 Magnolia Ave E,55119,44.973677,-93.014972,34,321.2608158220025,1.0,2,2025
2024-11-21,200000.0,2024-12-20,202000,2.0,1.0,1310.0,5227.0,Saint Paul,2190 Bush Ave E,55119,44.964604,-93.00838,29,152.67175572519085,1.0,11,2024
2024-10-29,399900.0,2025-01-30,391500,3.0,1.0,1428.0,8276.0,Saint Paul,6 Norbert Pl,55116,44.906395,-93.181764,93,280.0420168067227,1.5,10,2024
2024-11-15,340000.0,2025-01-30,330000,4.0,1.0,1615.0,4269.0,Saint Paul,32 Wheeler St S,55105,44.940409,-93.173939,76,210.52631578947367,2.0,11,2024
2024-10-04,279900.0,2024-12-12,279900,3.0,1.5,1823.0,4966.0,Saint Paul,1862 3rd St E,55119,44.956493,-93.021713,69,153.53812397147558,1.2,10,2024
2025-02-07,318000.0,2025-02-07,318000,2.0,2.0,1408.0,5663.0,Saint Paul,1460 Eleanor Ave,55116,44.920384,-93.162137,0,225.85227272727272,0.6666666666666666,2,2025
2024-11-24,275000.0,2025-04-14,286000,4.0,2.0,1996.0,3964.0,Saint Paul,1252 Albemarle St,55117,44.978855,-93.106847,141,137.77555110220442,1.3333333333333333,11,2024
2025-01-23,709900.0,2025-02-21,700000,4.0,3.0,2864.0,5009.0,Saint Paul,2096 Berkeley Ave,55105,44.933162,-93.188966,29,247.87011173184356,1.0,1,2025
2025-02-11,275000.0,2025-03-14,300000,3.0,2.0,1600.0,7200.0,Saint Paul,32 Morningside Dr,55119,44.940167,-93.008445,31,171.875,1.0,2,2025
2024-12-10,465000.0,2025-03-07,480000,3.0,1.5,1717.0,8364.0,Saint Paul,1801 Saunders Ave,55116,44.914595,-93.176201,87,270.8211997670355,1.2,12,2024
2024-12-13,214000.0,2025-02-24,205000,3.0,1.0,1000.0,4835.0,Saint Paul,705 Magnolia Ave E,55106,44.974126,-93.070629,73,214.0,1.5,12,2024
2024-10-21,580000.0,2024-12-13,625000,3.0,2.0,2229.0,7405.0,Saint Paul,1695 Hillcrest Ave,55116,44.917294,-93.171884,53,260.2063705697622,1.0,10,2024
2025-01-27,549900.0,2025-02-27,622000,4.0,2.0,2358.0,6970.0,Saint Paul,1677 Bohland Ave,55116,44.916403,-93.17119,31,233.206106870229,1.3333333333333333,1,2025
2025-02-07,400000.0,2025-03-12,410000,3.0,1.5,1433.0,5358.0,Saint Paul,371 Hamline Ave S,55105,44.930184,-93.157196,33,279.13468248429865,1.2,2,2025
2024-12-21,435000.0,2025-02-04,440000,4.0,2.5,2196.0,9583.0,Saint Paul,1454 Almond Ave,55108,44.978914,-93.161439,45,198.08743169398906,1.1428571428571428,12,2024
2025-02-07,232000.0,2025-04-04,232000,3.0,1.0,1264.0,4922.0,Saint Paul,543 Charles Ave,55103,44.957812,-93.122991,56,183.54430379746836,1.5,2,2025
2025-01-23,395000.0,2025-02-25,405000,3.0,3.0,2005.0,5663.0,Saint Paul,2079 Bayard Ave,55116,44.922775,-93.188211,33,197.0074812967581,0.75,1,2025
2024-11-21,585000.0,2025-02-21,575000,4.0,2.5,2127.0,6229.0,Saint Paul,438 Otis Ave,55104,44.953455,-93.201387,92,275.03526093088857,1.1428571428571428,11,2024
2025-02-28,535900.0,2025-04-18,535000,7.0,2.5,3834.0,8973.0,Saint Paul,990 Ashland Ave,55104,44.94364,-93.142145,49,139.7756911841419,2.0,2,2025
2025-03-11,275000.0,2025-04-30,262000,2.0,2.0,1160.0,5401.0,Saint Paul,2091 Waukon Ave,55119,44.965506,-93.012122,50,237.06896551724137,0.6666666666666666,3,2025
2024-11-20,600000.0,2025-04-22,575000,3.0,3.0,2066.0,10890.0,Saint Paul,2019 Ramlow Pl,55116,44.905511,-93.185581,153,290.4162633107454,0.75,11,2024
2025-01-21,294999.0,2025-03-20,310000,4.0,1.0,1800.0,4835.0,Saint Paul,861 Hawthorne Ave E,55106,44.97868,-93.064236,58,163.88833333333332,2.0,1,2025
2024-11-15,375000.0,2025-01-16,375000,3.0,1.5,2086.0,4400.0,Saint Paul,382 Maple St,55106,44.958857,-93.06897,62,179.76989453499522,1.2,11,2024
2024-10-31,242000.0,2024-12-09,240000,3.0,1.0,1591.0,5702.0,Saint Paul,1267 Galtier St,55117,44.979456,-93.111388,39,152.10559396605908,1.5,10,2024
2024-11-21,439900.0,2025-04-04,432000,3.0,2.0,1532.0,12197.0,Saint Paul,1764 Hampshire Ave,55116,44.910428,-93.174722,134,287.14099216710184,1.0,11,2024
2025-04-04,250000.0,2025-04-18,285000,3.0,1.0,1191.0,4356.0,Saint Paul,829 Manomin Ave,55107,44.92111,-93.100957,14,209.90764063811923,1.5,4,2025
2025-04-02,350000.0,2025-05-02,360000,3.0,2.0,1893.0,6882.0,Saint Paul,914 Hoyt Ave W,55117,44.988015,-93.1388,30,184.89170628631803,1.0,4,2025
2025-03-18,340000.0,2025-04-28,340000,3.0,2.0,1822.0,4661.0,Saint Paul,796 Lexington Pkwy N,55104,44.965385,-93.146063,41,186.60812294182216,1.0,3,2025
2025-03-19,345000.0,2025-04-15,380000,3.0,1.0,1032.0,5619.0,Saint Paul,1431 Scheffer Ave,55116,44.921791,-93.160707,27,334.30232558139534,1.5,3,2025
2024-09-27,349900.0,2024-12-17,343000,3.0,2.5,2326.0,9017.0,Saint Paul,1836 Woodcrest Dr,55119,44.94536,-93.0228,81,150.4299226139295,0.8571428571428571,9,2024
2025-03-17,875000.0,2025-05-12,875000,3.0,3.5,3460.0,11979.0,Saint Paul,1456 Edgcumbe Rd,55116,44.92095,-93.149643,56,252.89017341040463,0.6666666666666666,3,2025
2025-04-07,325000.0,2025-05-29,349000,3.0,2.0,1050.0,6351.0,Saint Paul,1630 Fernwood St,55108,44.99046,-93.151012,52,309.5238095238095,1.0,4,2025
2025-04-29,397500.0,2025-05-13,430000,3.0,1.0,1419.0,6447.0,Saint Paul,1026 Saint Paul Ave,55116,44.910957,-93.183199,14,280.12684989429175,1.5,4,2025
2024-07-18,775000.0,2025-05-05,750000,6.0,2.5,4800.0,8668.0,Saint Paul,1830 Dayton Ave,55104,44.946944,-93.177643,291,161.45833333333334,1.7142857142857142,7,2024
2024-11-05,365000.0,2024-12-13,360000,3.0,2.0,1644.0,7928.0,Saint Paul,974 Burns Ave,55106,44.948468,-93.059417,38,222.01946472019463,1.0,11,2024
2025-03-31,250000.0,2025-05-05,301000,2.0,1.0,960.0,4966.0,Saint Paul,1151 Van Buren Ave,55104,44.962341,-93.148771,35,260.4166666666667,1.0,3,2025
2025-02-19,265000.0,2025-05-08,265000,3.0,1.0,1572.0,4922.0,Saint Paul,1539 Cumberland St,55117,44.987508,-93.117644,78,168.57506361323155,1.5,2,2025
2025-02-11,311300.0,2025-03-13,311300,3.0,1.0,1133.0,4792.0,Saint Paul,1765 Van Buren Ave,55104,44.962231,-93.175016,30,274.75728155339806,1.5,2,2025
2024-12-10,215000.0,2025-02-27,195000,2.0,1.0,1128.0,4356.0,Saint Paul,1260 7th St E,55106,44.966463,-93.047286,79,190.60283687943263,1.0,12,2024
2025-03-19,299900.0,2025-04-30,300000,4.0,2.0,1644.0,4879.0,Saint Paul,1787 Orange Ave E,55119,44.979572,-93.024769,42,182.42092457420924,1.3333333333333333,3,2025
2024-10-29,325000.0,2024-12-23,325000,3.0,2.0,1838.0,8407.0,Saint Paul,2030 Larpenteur Ave E,55109,44.991696,-93.014576,55,176.82263329706203,1.0,10,2024
2025-03-28,549900.0,2025-04-22,610000,4.0,3.5,2662.0,5053.0,Saint Paul,935 Palace Ave,55102,44.928951,-93.139643,25,206.57400450788882,0.8888888888888888,3,2025
2024-12-03,295000.0,2025-04-04,280000,4.0,2.0,1241.0,4792.0,Saint Paul,1385 White Bear Ave N,55106,44.983194,-93.025595,122,237.71152296535053,1.3333333333333333,12,2024
2024-10-03,334900.0,2024-12-18,335000,3.0,2.0,1613.0,10625.0,Saint Paul,625 Lexington Pkwy S,55116,44.922507,-93.147028,76,207.62554246745196,1.0,10,2024
2025-02-26,365000.0,2025-04-03,365000,3.0,2.0,1744.0,8494.0,Saint Paul,18 Ruth St N,55119,44.941615,-93.014618,36,209.28899082568807,1.0,2,2025
2024-11-12,295000.0,2024-12-16,292500,3.0,2.0,1648.0,6839.0,Saint Paul,402 Montana Ave E,55130,44.98704,-93.083524,34,179.00485436893203,1.0,11,2024
2025-02-07,434900.0,2025-02-28,434900,5.0,3.0,2274.0,5968.0,Saint Paul,1462 Como Ave,55108,44.977045,-93.162115,21,191.24890061565523,1.25,2,2025
2024-10-09,199900.0,2025-01-06,199900,1.0,1.0,684.0,7492.0,Saint Paul,144 Stevens St W,55107,44.92829,-93.091687,89,292.2514619883041,0.5,10,2024
2025-04-17,400000.0,2025-05-07,453000,3.0,2.0,1854.0,7500.0,Saint Paul,1340 Keston St,55108,44.981341,-93.197959,20,215.7497303128371,1.0,4,2025
2025-04-09,214900.0,2025-05-22,217000,3.0,1.5,1280.0,4792.0,Saint Paul,298 Cottage Ave W,55117,44.982551,-93.112593,43,167.890625,1.2,4,2025
2025-04-04,199000.0,2025-05-09,190000,4.0,2.0,1841.0,5009.0,Saint Paul,40 Magnolia Ave W,55117,44.973551,-93.101859,35,108.09342748506246,1.3333333333333333,4,2025
2025-04-01,450000.0,2025-05-07,460000,3.0,1.5,1450.0,4966.0,Saint Paul,175 Exeter Pl,55104,44.946349,-93.194761,36,310.3448275862069,1.2,4,2025
2024-12-26,299900.0,2025-03-10,310000,4.0,2.0,1608.0,7536.0,Saint Paul,280 Hatch Ave,55117,44.970925,-93.111994,74,186.50497512437812,1.3333333333333333,12,2024
2025-04-01,389000.0,2025-05-23,350000,3.0,3.0,2088.0,5184.0,Saint Paul,2159 Dayton Ave,55104,44.947524,-93.191473,52,186.30268199233717,0.75,4,2025
2025-04-11,345000.0,2025-05-16,350000,4.0,2.0,1857.0,9361.0,Saint Paul,18 Michael St,55119,44.941577,-93.005935,35,185.78352180936994,1.3333333333333333,4,2025
2024-11-14,265000.0,2024-12-16,265000,3.0,1.0,1484.0,4922.0,Saint Paul,303 Stinson St,55117,44.969557,-93.112846,32,178.57142857142858,1.5,11,2024
2024-12-05,419900.0,2024-12-30,410000,4.0,2.0,2286.0,7492.0,Saint Paul,1873 Iglehart Ave,55104,44.949756,-93.179544,25,183.6832895888014,1.3333333333333333,12,2024
2025-03-11,329900.0,2025-04-24,320000,2.0,1.0,1544.0,4966.0,Saint Paul,1275 Watson Ave,55116,44.924494,-93.153935,44,213.6658031088083,1.0,3,2025
2025-02-24,400000.0,2025-04-15,410000,3.0,1.5,1681.0,4400.0,Saint Paul,424 Daly St,55102,44.928544,-93.126707,50,237.9535990481856,1.2,2,2025
2025-02-07,289000.0,2025-03-21,321000,2.0,2.0,996.0,7318.0,Saint Paul,1367 Saint Albans St N,55117,44.982293,-93.129145,42,290.16064257028114,0.6666666666666666,2,2025
2025-02-21,1000000.0,2025-05-22,985000,7.0,2.5,4185.0,10890.0,Saint Paul,1726 Summit Ave,55105,44.941002,-93.173694,90,238.94862604540023,2.0,2,2025
2025-03-04,625000.0,2025-04-25,675000,3.0,2.5,2348.0,7492.0,Saint Paul,1783 Eleanor Ave,55116,44.920925,-93.175707,52,266.1839863713799,0.8571428571428571,3,2025
2025-04-07,239900.0,2025-05-01,255000,3.0,2.0,1133.0,8146.0,Saint Paul,1697 Minnehaha Ave E,55106,44.963363,-93.02887,24,211.738746690203,1.0,4,2025
2025-02-24,450000.0,2025-04-29,520000,3.0,2.0,1558.0,5009.0,Saint Paul,1516 Arona St,55108,44.98683,-93.163958,64,288.83183568677794,1.0,2,2025
2025-02-22,275000.0,2025-04-15,305000,2.0,2.0,1214.0,4922.0,Saint Paul,1255 Charles Ave,55104,44.957796,-93.153158,52,226.52388797364085,0.6666666666666666,2,2025
2025-01-09,299000.0,2025-03-10,295000,4.0,2.0,1756.0,7318.0,Saint Paul,150 Bates Ave,55106,44.950938,-93.063775,60,170.27334851936217,1.3333333333333333,1,2025
2025-03-17,350000.0,2025-04-30,350000,5.0,2.0,2075.0,13765.0,Saint Paul,449 Aurora Ave,55103,44.955134,-93.119013,44,168.67469879518072,1.6666666666666667,3,2025
2024-11-08,209900.0,2025-03-07,205000,2.0,2.0,1516.0,4661.0,Saint Paul,1074 Euclid St,55106,44.954715,-93.055136,119,138.45646437994722,0.6666666666666666,11,2024
2025-03-27,260000.0,2025-05-02,267000,3.0,2.0,1390.0,4051.0,Saint Paul,112 Sycamore St E,55117,44.964706,-93.095777,36,187.0503597122302,1.0,3,2025
2024-10-04,199900.0,2025-01-10,182000,4.0,1.0,1588.0,2526.0,Saint Paul,547 Western Ave N,55103,44.957871,-93.11641,98,125.88161209068011,2.0,10,2024
2025-05-06,375000.0,2025-05-27,428500,2.0,2.0,1764.0,6970.0,Saint Paul,2375 Buford Ave,55108,44.984754,-93.200407,21,212.58503401360545,0.6666666666666666,5,2025
2024-11-14,131000.0,2025-02-25,131000,2.0,1.0,1000.0,7187.0,Saint Paul,886 Johnson Pkwy,55106,44.968041,-93.044617,103,131.0,1.0,11,2024
2025-01-22,220000.0,2025-02-27,288000,3.0,2.0,1534.0,7405.0,Saint Paul,1694 Sherwood Ave,55106,44.983577,-93.028949,36,143.41590612777054,1.0,1,2025
2025-03-27,290000.0,2025-05-02,295000,4.0,2.0,1572.0,7667.0,Saint Paul,46 King St W,55107,44.927695,-93.087194,36,184.47837150127228,1.3333333333333333,3,2025
2025-04-29,415000.0,2025-05-16,480000,2.0,1.0,1152.0,4879.0,Saint Paul,2151 Fairmount Ave,55105,44.937274,-93.191281,17,360.24305555555554,1.0,4,2025
2024-07-31,259900.0,2024-12-13,247000,3.0,2.0,1509.0,5227.0,Saint Paul,983 Minnehaha Ave W,55104,44.963257,-93.141744,135,172.233267064281,1.0,7,2024
2024-06-25,799900.0,2024-12-13,770000,5.0,3.5,3090.0,5227.0,Saint Paul,1965 Rome Ave,55116,44.913675,-93.183394,171,258.8673139158576,1.1111111111111112,6,2024
2024-11-18,314500.0,2024-12-13,310000,3.0,1.5,1218.0,11326.0,Saint Paul,112 Geranium Ave E,55117,44.975367,-93.095675,25,258.2101806239737,1.2,11,2024
2025-03-07,500000.0,2025-06-02,487500,4.0,3.0,2106.0,5968.0,Saint Paul,2087 Selby Ave,55104,44.946498,-93.188466,87,237.41690408357076,1.0,3,2025
2025-04-30,265000.0,2025-05-30,280000,2.0,2.0,1473.0,6011.0,Saint Paul,1777 Sheridan Ave,55116,44.901922,-93.17563,30,179.90495587236933,0.6666666666666666,4,2025
2024-09-07,1999000.0,2025-05-01,1990000,8.0,7.5,9188.0,84071.0,Saint Paul,6 Crocus Hl,55102,44.938027,-93.122181,236,217.5663909447105,0.9411764705882353,9,2024
2025-04-22,274900.0,2025-05-20,285000,3.0,1.0,1482.0,3345.0,Saint Paul,418 Baker St W,55107,44.92642,-93.102938,28,185.49257759784075,1.5,4,2025
2024-07-05,320000.0,2025-02-26,322000,4.0,2.0,1768.0,7405.0,Saint Paul,1036 Burgess St,55103,44.968147,-93.143827,236,180.99547511312218,1.3333333333333333,7,2024
2025-03-09,215000.0,2025-03-27,215000,2.0,2.0,1063.0,4922.0,Saint Paul,1829 Reaney Ave E,55119,44.964234,-93.023269,18,202.25776105362183,0.6666666666666666,3,2025
2025-02-24,364900.0,2025-04-02,390000,3.0,1.0,1248.0,4574.0,Saint Paul,2203 Buford Ave,55108,44.985284,-93.193258,37,292.3878205128205,1.5,2,2025
2025-02-18,300000.0,2025-04-03,325000,3.0,1.0,1429.0,4356.0,Saint Paul,81 Congress St W,55107,44.932518,-93.088956,44,209.93701889433171,1.5,2,2025
2024-12-10,199900.0,2025-02-28,194000,2.0,1.0,1214.0,4922.0,Saint Paul,1807 Bush Ave E,55119,44.965137,-93.024037,80,164.66227347611203,1.0,12,2024
2025-03-11,475000.0,2025-04-10,500000,5.0,2.0,2582.0,5358.0,Saint Paul,1541 Albert St N,55108,44.987606,-93.159551,30,183.9659178931061,1.6666666666666667,3,2025
2025-02-17,1495000.0,2025-04-10,1520000,4.0,5.0,5113.0,9845.0,Saint Paul,719 Linwood Ave,55105,44.935051,-93.130261,52,292.39194210835126,0.6666666666666666,2,2025
2025-01-08,450000.0,2025-04-17,456000,3.0,2.5,1407.0,5097.0,Saint Paul,1611 Stanford Ave,55105,44.932699,-93.168396,99,319.8294243070362,0.8571428571428571,1,2025
2024-09-09,311000.0,2025-03-21,305000,4.0,2.0,2033.0,6186.0,Saint Paul,808 Brown Ave,55107,44.921724,-93.070718,193,152.9758976881456,1.3333333333333333,9,2024
2024-11-18,599900.0,2025-03-05,585000,3.0,2.5,1645.0,3528.0,Saint Paul,603 Summit Ave,55102,44.941732,-93.125467,107,364.6808510638298,0.8571428571428571,11,2024
2025-04-04,240000.0,2025-05-09,255000,4.0,1.0,1432.0,4835.0,Saint Paul,745 Jessamine Ave E,55106,44.975042,-93.06902,35,167.5977653631285,2.0,4,2025
2025-03-19,550000.0,2025-05-02,565000,5.0,2.5,2501.0,5227.0,Saint Paul,1383 Simpson St,55108,44.982995,-93.163468,44,219.91203518592562,1.4285714285714286,3,2025
2025-01-09,269990.0,2025-02-28,272000,3.0,2.0,1355.0,5097.0,Saint Paul,1978 5th St E,55119,44.959216,-93.016885,50,199.25461254612546,1.0,1,2025
2024-12-11,284900.0,2025-03-20,250000,3.0,2.0,1993.0,6839.0,Saint Paul,2105 Fremont Ave E,55119,44.957899,-93.011612,99,142.95032614149522,1.0,12,2024
2024-11-06,350000.0,2024-12-13,355000,3.0,1.0,1415.0,7971.0,Saint Paul,1215 Colette Pl,55116,44.904761,-93.183688,37,247.34982332155477,1.5,11,2024
2024-10-14,329000.0,2024-12-10,323000,4.0,2.5,1654.0,5793.0,Saint Paul,609 Idaho Ave E,55130,44.990356,-93.074931,57,198.9117291414752,1.1428571428571428,10,2024
2024-11-19,220000.0,2025-03-10,223000,3.0,1.0,1050.0,5401.0,Saint Paul,1743 Minnehaha Ave E,55106,44.963357,-93.026747,111,209.52380952380952,1.5,11,2024
2025-02-21,219900.0,2025-03-27,222000,3.0,1.0,1104.0,4792.0,Saint Paul,2002 Hawthorne Ave E,55119,44.978139,-93.015965,34,199.18478260869566,1.5,2,2025
2024-10-24,259900.0,2025-01-31,252500,3.0,2.0,1468.0,4574.0,Saint Paul,1087 Wakefield Ave,55106,44.953411,-93.054545,99,177.04359673024524,1.0,10,2024
2024-11-15,250000.0,2025-02-06,257000,3.0,1.0,1148.0,7405.0,Saint Paul,2197 3rd St E,55119,44.957015,-93.008301,83,217.77003484320556,1.5,11,2024
2025-02-05,300000.0,2025-04-30,300300,3.0,2.0,1568.0,5140.0,Saint Paul,1920 4th St E,55119,44.958306,-93.019276,84,191.3265306122449,1.0,2,2025
2024-11-26,158000.0,2025-01-31,158000,3.0,1.0,1530.0,4922.0,Saint Paul,750 Charles Ave,55104,44.957271,-93.131924,66,103.26797385620915,1.5,11,2024
2024-11-08,395000.0,2025-02-14,405000,3.0,2.5,2436.0,9627.0,Saint Paul,436 Wheelock Pkwy E,55130,44.989258,-93.08306,98,162.15106732348113,0.8571428571428571,11,2024
2024-11-15,462500.0,2024-12-13,462500,4.0,3.0,2790.0,12632.0,Saint Paul,613 North St,55106,44.959579,-93.074793,28,165.7706093189964,1.0,11,2024
2025-01-28,239500.0,2025-03-26,255000,2.0,1.0,1085.0,6229.0,Saint Paul,528 Grace St,55102,44.932211,-93.122352,57,220.7373271889401,1.0,1,2025
2025-02-25,429900.0,2025-04-11,430000,4.0,3.0,2684.0,12240.0,Saint Paul,635 Burlington Rd,55119,44.921593,-93.009235,45,160.17138599105812,1.0,2,2025
2024-12-03,319900.0,2025-01-08,330000,4.0,3.0,2702.0,12001.0,Saint Paul,293 Burlington Rd,55119,44.930687,-93.014274,36,118.39378238341969,1.0,12,2024
2025-01-28,250000.0,2025-03-20,254000,3.0,1.0,1500.0,4095.0,Saint Paul,1633 Case Ave,55106,44.970522,-93.03147,51,166.66666666666666,1.5,1,2025
2024-10-25,250000.0,2024-12-11,244000,3.0,1.0,1266.0,4051.0,Saint Paul,931 Charles Ave,55104,44.9578,-93.139588,47,197.47235387045814,1.5,10,2024
2025-01-16,265000.0,2025-03-14,275000,3.0,1.0,1559.0,7405.0,Saint Paul,2184 Rose Ave E,55119,44.975923,-93.008711,57,169.9807568954458,1.5,1,2025
2025-02-11,825000.0,2025-04-25,902500,5.0,2.5,2639.0,10193.0,Saint Paul,2141 Doswell Ave,55108,44.983247,-93.190249,73,312.6184160666919,1.4285714285714286,2,2025
2024-11-06,275000.0,2024-12-13,275000,4.0,1.0,1215.0,6098.0,Saint Paul,1599 Margaret St,55106,44.961582,-93.032733,37,226.33744855967078,2.0,11,2024
2024-11-12,310000.0,2025-01-02,310000,3.0,1.0,1420.0,4792.0,Saint Paul,895 Carroll Ave,55104,44.950596,-93.137952,51,218.30985915492957,1.5,11,2024
2024-09-25,235000.0,2024-12-23,220000,3.0,1.5,1213.0,9148.0,Saint Paul,520 Beaumont St,55130,44.961287,-93.078331,89,193.73454245671888,1.2,9,2024
2024-11-18,270000.0,2024-12-27,270000,3.0,1.0,967.0,5227.0,Saint Paul,1147 Minnehaha Ave W,55104,44.963266,-93.148511,39,279.2140641158221,1.5,11,2024
2024-10-04,199900.0,2024-12-12,200000,3.0,1.0,979.0,4966.0,Saint Paul,887 Lawson Ave E,55106,44.972356,-93.062937,69,204.1879468845761,1.5,10,2024
2024-11-15,290000.0,2024-12-17,290000,4.0,1.5,1784.0,6229.0,Saint Paul,236 Isabel St W,55107,44.932823,-93.095502,32,162.55605381165918,1.6,11,2024
2025-03-21,1250000.0,2025-04-11,1275000,6.0,4.5,4639.0,17642.0,Saint Paul,1943 Summit Ave,55105,44.942069,-93.182472,21,269.4546238413451,1.0909090909090908,3,2025
2025-02-13,470000.0,2025-02-28,470000,2.0,1.0,1410.0,2788.0,Saint Paul,70 Lawton Steps,55102,44.93965,-93.119166,15,333.3333333333333,1.0,2,2025
2024-11-06,259000.0,2025-03-28,262000,2.0,2.0,1223.0,4922.0,Saint Paul,786 Thomas Ave,55104,44.959086,-93.133321,142,211.7743254292723,0.6666666666666666,11,2024
2025-03-17,259000.0,2025-04-11,273000,3.0,2.0,1138.0,4835.0,Saint Paul,756 Geranium Ave E,55106,44.975435,-93.068561,25,227.59226713532513,1.0,3,2025
2024-08-07,225000.0,2025-01-08,230000,3.0,1.0,1200.0,4792.0,Saint Paul,636 Aurora Ave,55104,44.954565,-93.127161,154,187.5,1.5,8,2024
2025-02-21,189900.0,2025-03-27,217000,2.0,1.0,1080.0,5140.0,Saint Paul,1387 Minnehaha Ave E,55106,44.96337,-93.042074,34,175.83333333333334,1.0,2,2025
2024-10-26,299900.0,2025-01-17,307000,4.0,3.0,1832.0,12589.0,Saint Paul,1271 Kennard St,55106,44.979712,-93.031062,83,163.7008733624454,1.0,10,2024
2025-02-20,315000.0,2025-04-03,320000,3.0,1.0,1052.0,5227.0,Saint Paul,660 Jefferson Ave,55102,44.930285,-93.127601,42,299.4296577946768,1.5,2,2025
2024-12-11,249899.0,2025-02-14,250000,3.0,1.0,940.0,4356.0,Saint Paul,435 Banfil St,55102,44.93732,-93.118159,65,265.85,1.5,12,2024
2024-12-20,295000.0,2025-03-03,295000,4.0,2.0,1817.0,4792.0,Saint Paul,733 Cook Ave E,55106,44.973219,-93.069728,73,162.3555310952119,1.3333333333333333,12,2024
2024-10-25,399900.0,2024-12-09,424500,3.0,1.5,1617.0,5576.0,Saint Paul,1473 Osceola Ave,55105,44.936344,-93.162514,45,247.30983302411875,1.2,10,2024
2024-06-06,275000.0,2025-02-27,275000,2.0,1.0,1266.0,5009.0,Saint Paul,1127 Van Buren Ave,55104,44.962348,-93.147849,266,217.21958925750394,1.0,6,2024
2025-04-01,315000.0,2025-04-25,350000,2.0,1.0,832.0,4879.0,Saint Paul,1973 Randolph Ave,55105,44.92733,-93.18371,24,378.6057692307692,1.0,4,2025
2025-01-06,265000.0,2025-02-21,265000,3.0,1.0,974.0,4835.0,Saint Paul,860 Hawthorne Ave E,55106,44.978167,-93.064232,46,272.07392197125256,1.5,1,2025
2025-03-28,229900.0,2025-04-23,245000,3.0,2.0,1564.0,8233.0,Saint Paul,1101 Western Ave N,55117,44.974439,-93.11654,26,146.99488491048592,1.0,3,2025
2024-12-13,314900.0,2025-03-31,304000,3.0,2.0,1406.0,5227.0,Saint Paul,217 Congress St W,55107,44.932444,-93.094916,108,223.96870554765292,1.0,12,2024
2024-11-16,199000.0,2025-01-10,199000,1.0,1.0,666.0,4879.0,Saint Paul,1663 Ross Ave,55106,44.966086,-93.030055,55,298.79879879879877,0.5,11,2024
2025-01-16,259900.0,2025-03-12,259900,4.0,1.5,1600.0,4879.0,Saint Paul,991 Geranium Ave E,55106,44.975981,-93.058671,55,162.4375,1.6,1,2025
2025-02-18,96000.0,2025-03-21,96000,2.0,1.0,648.0,3128.0,Saint Paul,859 Marion St,55117,44.967151,-93.110108,31,148.14814814814815,1.0,2,2025
2024-12-04,250000.0,2025-01-29,250000,2.0,2.0,1045.0,7492.0,Saint Paul,809 Englewood Ave,55104,44.964147,-93.134441,56,239.23444976076556,0.6666666666666666,12,2024
2024-11-20,166000.0,2025-01-31,157501,3.0,2.0,1296.0,3093.0,Saint Paul,856 Marion St,55117,44.967084,-93.109397,72,128.08641975308643,1.0,11,2024
2024-12-02,139900.0,2024-12-31,140000,3.0,1.0,1280.0,4966.0,Saint Paul,649 Lafond Ave,55104,44.960506,-93.127661,29,109.296875,1.5,12,2024
2025-02-04,400000.0,2025-03-25,392100,2.0,1.0,1765.0,8146.0,Saint Paul,1717 Yorkshire Ave,55116,44.911868,-93.172846,49,226.62889518413598,1.0,2,2025
2024-10-09,367500.0,2024-12-06,371000,3.0,2.0,1205.0,5053.0,Saint Paul,2100 Berkeley Ave,55105,44.933162,-93.189121,58,304.9792531120332,1.0,10,2024
2025-01-23,485000.0,2025-03-05,495000,3.0,1.5,1896.0,5445.0,Saint Paul,1817 Wellesley Ave,55105,44.931822,-93.176996,41,255.8016877637131,1.2,1,2025
2024-10-15,349000.0,2024-12-20,340000,5.0,2.0,1946.0,7275.0,Saint Paul,921 Orange Ave E,55106,44.979584,-93.061591,66,179.34224049331962,1.6666666666666667,10,2024
2024-10-11,299000.0,2025-03-14,295000,3.0,1.5,2128.0,7536.0,Saint Paul,859 Ivy Ave E,55106,44.981398,-93.064371,154,140.50751879699249,1.2,10,2024
2025-03-14,259500.0,2025-04-28,270000,2.0,1.0,884.0,8102.0,Saint Paul,743 Idaho Ave W,55117,44.990311,-93.131406,45,293.552036199095,1.0,3,2025
2025-03-18,800000.0,2025-04-25,800000,3.0,1.5,2240.0,8146.0,Saint Paul,38 Otis Ave,55104,44.944087,-93.194606,38,357.14285714285717,1.2,3,2025
2025-03-17,624900.0,2025-04-23,600000,4.0,3.0,2658.0,23000.0,Saint Paul,1518 Burg Ave,55119,44.896015,-93.006469,37,235.10158013544017,1.0,3,2025
2025-02-24,415000.0,2025-04-11,440000,4.0,1.5,1624.0,4792.0,Saint Paul,216 Lexington Pkwy S,55105,44.934973,-93.146305,46,255.54187192118226,1.6,2,2025
2025-02-14,309900.0,2025-04-11,295000,3.0,2.0,1572.0,6578.0,Saint Paul,1754 6th St E,55106,44.960128,-93.026345,56,197.13740458015266,1.0,2,2025
2025-03-04,209900.0,2025-04-18,207165,2.0,2.0,1744.0,3398.0,Saint Paul,824 Como Ave,55103,44.973992,-93.133695,45,120.35550458715596,0.6666666666666666,3,2025
2024-12-23,249900.0,2025-01-17,244000,4.0,2.0,1372.0,5053.0,Saint Paul,1726 4th St E,55106,44.958326,-93.0275,25,182.14285714285714,1.3333333333333333,12,2024
2024-12-19,324900.0,2025-02-28,365000,4.0,2.0,1900.0,5968.0,Saint Paul,1065 Ashland Ave,55104,44.944241,-93.145117,71,171.0,1.3333333333333333,12,2024
2025-03-12,290000.0,2025-04-11,316500,3.0,2.0,1820.0,9932.0,Saint Paul,1691 Rose Ave E,55106,44.976843,-93.029067,30,159.34065934065933,1.0,3,2025
2024-11-25,299900.0,2025-01-30,296500,3.0,2.0,1260.0,4922.0,Saint Paul,1685 Sherburne Ave,55104,44.956738,-93.171387,66,238.015873015873,1.0,11,2024
2024-11-22,300000.0,2024-12-27,300000,3.0,1.0,1189.0,6578.0,Saint Paul,126 Syndicate St N,55104,44.945282,-93.15404,35,252.31286795626576,1.5,11,2024
2025-02-21,350000.0,2025-03-28,353500,4.0,2.5,1575.0,6098.0,Saint Paul,562 Ottawa Ave,55107,44.928944,-93.102918,35,222.22222222222223,1.1428571428571428,2,2025
2025-03-03,249900.0,2025-04-09,260000,2.0,1.0,1133.0,5097.0,Saint Paul,1077 Idaho Ave W,55117,44.990367,-93.145496,37,220.5648720211827,1.0,3,2025
2024-10-28,525000.0,2025-02-14,525000,3.0,1.5,2412.0,6229.0,Saint Paul,1242 Palace Ave,55105,44.92851,-93.152702,109,217.66169154228857,1.2,10,2024
2025-01-25,280000.0,2025-03-17,280000,3.0,1.0,1056.0,7492.0,Saint Paul,1680 Wilson Ave,55106,44.953881,-93.029299,51,265.1515151515151,1.5,1,2025
2024-07-29,199900.0,2025-02-28,210000,3.0,1.0,1069.0,5140.0,Saint Paul,288 Sidney St E,55107,44.923705,-93.073326,214,186.99719363891487,1.5,7,2024
2024-11-14,615000.0,2025-01-03,678000,3.0,1.5,1795.0,5053.0,Saint Paul,2020 Stanford Ave,55105,44.932252,-93.185794,50,342.6183844011142,1.2,11,2024
2024-12-02,265000.0,2025-02-06,265000,3.0,2.5,1531.0,4966.0,Saint Paul,896 6th St E,55106,44.960097,-93.062769,66,173.08948399738733,0.8571428571428571,12,2024
2024-09-14,764900.0,2025-02-07,750000,4.0,3.0,3005.0,8756.0,Saint Paul,48 Mississippi River Blvd N,55104,44.94351,-93.193034,146,254.54242928452578,1.0,9,2024
2025-02-13,214900.0,2025-03-20,215000,3.0,1.0,1384.0,4966.0,Saint Paul,783 York Ave,55106,44.968747,-93.067274,35,155.27456647398844,1.5,2,2025
2024-10-09,549900.0,2024-12-27,544390,3.0,2.5,2158.0,5227.0,Saint Paul,2127 Dayton Ave,55104,44.947526,-93.190238,79,254.81927710843374,0.8571428571428571,10,2024
2024-11-15,260000.0,2025-01-15,270000,4.0,2.0,1905.0,4966.0,Saint Paul,705 Jenks Ave,55106,44.971419,-93.070666,61,136.48293963254594,1.3333333333333333,11,2024
2024-11-20,294900.0,2025-01-24,280000,3.0,2.0,1331.0,4835.0,Saint Paul,1421 Hewitt Ave,55104,44.966824,-93.160355,65,221.56273478587528,1.0,11,2024
2024-10-11,350000.0,2025-01-17,332500,3.0,2.0,1598.0,4792.0,Saint Paul,1023 Como Pl,55103,44.971907,-93.134734,98,219.0237797246558,1.0,10,2024
2024-11-30,1030000.0,2025-02-05,950000,6.0,4.0,4465.0,8538.0,Saint Paul,710 Lincoln Ave,55105,44.938559,-93.130051,67,230.68309070548713,1.2,11,2024
2024-09-19,324500.0,2025-01-03,325000,5.0,2.0,1870.0,5968.0,Saint Paul,1508 Western Ave N,55117,44.986745,-93.115662,106,173.52941176470588,1.6666666666666667,9,2024
2025-03-12,260000.0,2025-04-24,260000,5.0,2.0,1912.0,4617.0,Saint Paul,530 Kent St,55103,44.957207,-93.123528,43,135.98326359832635,1.6666666666666667,3,2025
2024-06-19,339000.0,2024-12-05,343000,4.0,2.0,2015.0,7623.0,Saint Paul,1353 Prior Ave S,55116,44.900594,-93.182668,169,168.23821339950373,1.3333333333333333,6,2024
2024-10-10,525000.0,2024-12-11,541000,3.0,2.0,2108.0,7405.0,Saint Paul,1616 Pinehurst Ave,55116,44.918585,-93.168607,62,249.05123339658445,1.0,10,2024
2024-12-19,449999.0,2025-01-31,440000,3.0,1.5,2040.0,6273.0,Saint Paul,1845 Ford Pkwy,55116,44.918233,-93.17837,43,220.58774509803922,1.2,12,2024
2024-10-01,260000.0,2025-01-31,252000,2.0,2.0,1651.0,8233.0,Saint Paul,2146 Ames Ave,55119,44.971975,-93.010466,122,157.48031496062993,0.6666666666666666,10,2024
2024-11-14,315000.0,2025-01-03,315000,3.0,2.5,2240.0,5009.0,Saint Paul,1060 Lafond Ave,55104,44.960013,-93.144875,50,140.625,0.8571428571428571,11,2024
2025-02-18,239900.0,2025-03-19,251000,3.0,1.0,979.0,9365.0,Saint Paul,93 Winona St E,55107,44.921648,-93.0813,29,245.04596527068438,1.5,2,2025
2024-10-03,274900.0,2024-12-11,265000,2.0,1.5,1440.0,6625.0,Saint Paul,2036 Case Ave E,55119,44.970036,-93.014519,69,190.90277777777777,0.8,10,2024
2025-03-25,175000.0,2025-03-25,167500,3.0,1.0,1040.0,5097.0,Saint Paul,2061 Minnehaha Ave E,55119,44.963318,-93.013445,0,168.26923076923077,1.5,3,2025
2024-10-11,264990.0,2025-01-15,265000,3.0,1.0,1654.0,4966.0,Saint Paul,437 Lawson Ave E,55130,44.972198,-93.082185,96,160.21160822249092,1.5,10,2024
2024-09-12,500000.0,2024-12-13,500000,4.0,2.5,2210.0,7841.0,Saint Paul,797 Lakeview Ave,55117,44.982176,-93.133741,92,226.2443438914027,1.1428571428571428,9,2024
2024-11-22,235000.0,2025-01-28,235000,2.0,1.0,1134.0,4879.0,Saint Paul,1212 Beech St,55106,44.961938,-93.04936,67,207.2310405643739,1.0,11,2024
2024-12-18,289900.0,2025-01-21,289900,3.0,1.0,1337.0,6273.0,Saint Paul,1701 Fremont Ave,55106,44.957928,-93.028628,34,216.8287210172027,1.5,12,2024
2024-11-01,209900.0,2024-12-20,205000,3.0,2.0,1758.0,4879.0,Saint Paul,40 Geranium Ave W,55117,44.975332,-93.101817,49,119.39704209328782,1.0,11,2024
2024-12-07,270000.0,2025-01-30,280000,3.0,2.0,1688.0,4966.0,Saint Paul,2092 Case Ave E,55119,44.970035,-93.012325,54,159.95260663507108,1.0,12,2024
2024-10-03,268000.0,2024-12-12,268000,3.0,1.0,1380.0,9100.0,Saint Paul,653 N Otsego St,55130,44.960557,-93.081967,70,194.20289855072463,1.5,10,2024
2025-01-10,350000.0,2025-02-10,350000,4.0,3.0,2386.0,4960.0,Saint Paul,1032 Conway St,55106,44.955603,-93.056898,31,146.68901927912825,1.0,1,2025
2025-02-17,424900.0,2025-03-14,455000,4.0,2.5,2272.0,7841.0,Saint Paul,1730 Race St,55116,44.91518,-93.146897,25,187.01584507042253,1.1428571428571428,2,2025
2024-11-13,475000.0,2025-01-08,475000,4.0,2.5,2993.0,8625.0,Saint Paul,647 Manomin Ave,55107,44.92641,-93.101023,56,158.70364183093886,1.1428571428571428,11,2024
2025-04-10,625000.0,2025-05-01,805000,3.0,2.5,3043.0,11500.0,Saint Paul,860 Syndicate St S,55116,44.915314,-93.15395,21,205.38941833716726,0.8571428571428571,4,2025
2024-09-30,264500.0,2025-01-17,260400,3.0,2.0,1283.0,11761.0,Saint Paul,1520 Upper Afton Rd,55106,44.947304,-93.036048,109,206.15744349181605,1.0,9,2024
2025-02-13,895000.0,2025-02-13,895000,5.0,2.5,3534.0,9148.0,Saint Paul,785 Goodrich Ave,55105,44.938105,-93.13317,0,253.25410299943408,1.4285714285714286,2,2025
2024-12-19,245000.0,2025-01-17,245000,3.0,1.0,864.0,4792.0,Saint Paul,848 Fuller Ave,55104,44.953685,-93.135962,29,283.56481481481484,1.5,12,2024
2024-11-13,699900.0,2025-01-15,685000,5.0,4.0,2762.0,4879.0,Saint Paul,2150 James Ave,55105,44.927712,-93.191201,63,253.40333091962347,1.0,11,2024
2024-10-10,210000.0,2025-03-28,209000,4.0,1.0,1166.0,5053.0,Saint Paul,1188 Ross Ave,55106,44.965557,-93.05023,169,180.10291595197256,2.0,10,2024
2025-03-05,195000.0,2025-03-31,220000,2.0,1.0,925.0,4879.0,Saint Paul,1560 Beech St,55106,44.961966,-93.034536,26,210.8108108108108,1.0,3,2025
2025-02-17,400000.0,2025-03-14,455000,3.0,1.5,1344.0,5053.0,Saint Paul,2178 Palace Ave,55105,44.928609,-93.19228,25,297.6190476190476,1.2,2,2025
2025-02-21,450000.0,2025-05-02,515000,4.0,2.0,1880.0,6360.0,Saint Paul,1062 Colby St,55116,44.909369,-93.190385,70,239.36170212765958,1.3333333333333333,2,2025
2025-01-28,675000.0,2025-04-30,675000,5.0,2.5,2140.0,5968.0,Saint Paul,1016 Goodrich Ave,55105,44.937551,-93.142997,92,315.42056074766356,1.4285714285714286,1,2025
2024-11-13,350000.0,2024-12-13,350000,3.0,2.0,2118.0,7971.0,Saint Paul,1344 Saint Albans St N,55117,44.981592,-93.128432,30,165.2502360717658,1.0,11,2024
2024-12-19,194900.0,2025-01-03,180000,4.0,2.0,1848.0,7405.0,Saint Paul,761 Robert St S,55107,44.923039,-93.08115,15,105.46536796536796,1.3333333333333333,12,2024
2025-01-10,369900.0,2025-02-18,375000,3.0,1.0,1060.0,4138.0,Saint Paul,1122 Edgcumbe Rd,55105,44.930251,-93.147608,39,348.9622641509434,1.5,1,2025
2024-11-21,310000.0,2025-02-20,310000,3.0,2.0,1922.0,7449.0,Saint Paul,1632 Wilson Ave,55106,44.953844,-93.031515,91,161.29032258064515,1.0,11,2024
2024-11-06,239900.0,2025-01-10,240000,4.0,2.0,1767.0,4966.0,Saint Paul,665 Wells St,55106,44.967803,-93.07246,65,135.7668364459536,1.3333333333333333,11,2024
2025-04-30,625000.0,2025-04-30,625000,5.0,2.0,2164.0,5009.0,Saint Paul,2160 Bayard Ave,55116,44.922253,-93.191664,0,288.8170055452865,1.6666666666666667,4,2025
2024-10-11,309900.0,2025-04-15,309900,3.0,1.0,1501.0,7667.0,Saint Paul,1972 4th St E,55119,44.958301,-93.017151,186,206.46235842771486,1.5,10,2024
2024-12-26,724900.0,2025-02-28,755000,4.0,3.5,2798.0,5358.0,Saint Paul,1216 Palace Ave,55105,44.928507,-93.15152,64,259.0779127948535,0.8888888888888888,12,2024
2024-09-03,289900.0,2025-01-31,288422,3.0,2.5,2040.0,4792.0,Saint Paul,730 Jenks Ave,55106,44.970929,-93.069898,150,142.1078431372549,0.8571428571428571,9,2024
2025-01-07,710000.0,2025-01-31,688000,4.0,2.0,2350.0,9191.0,Saint Paul,220 Oak Grove Pl,55105,44.934791,-93.147542,24,302.1276595744681,1.3333333333333333,1,2025
2025-02-02,900000.0,2025-04-04,900000,5.0,4.0,3000.0,5009.0,Saint Paul,2222 Scheffer Ave,55116,44.921331,-93.194216,61,300.0,1.0,2,2025
2024-11-06,230000.0,2024-12-16,226000,3.0,2.0,1014.0,6839.0,Saint Paul,1468 Fremont Ave,55106,44.957429,-93.038471,40,226.82445759368835,1.0,11,2024
2024-12-11,209000.0,2025-02-06,212000,3.0,2.0,1548.0,5619.0,Saint Paul,1060 Marshall Ave,55104,44.948211,-93.144981,57,135.01291989664082,1.0,12,2024
2024-12-02,335000.0,2025-02-28,325000,2.0,1.0,969.0,8015.0,Saint Paul,2052 Worcester Ave,55116,44.903273,-93.186721,88,345.7172342621259,1.0,12,2024
2025-02-07,599900.0,2025-03-14,615000,5.0,2.0,2162.0,5227.0,Saint Paul,2135 Bayard Ave,55116,44.922767,-93.190584,35,277.4745605920444,1.6666666666666667,2,2025
2024-10-25,365000.0,2024-12-05,380000,2.0,1.5,1240.0,6229.0,Saint Paul,955 Eleanor Ave,55102,44.920824,-93.140427,41,294.35483870967744,0.8,10,2024
2024-09-15,780000.0,2024-12-06,759000,5.0,2.0,2639.0,9017.0,Saint Paul,45 Hilltop Ln,55116,44.907628,-93.17568,82,295.5665024630542,1.6666666666666667,9,2024
2025-03-13,500000.0,2025-03-27,500000,3.0,1.5,2147.0,7492.0,Saint Paul,1660 Beechwood Ave,55116,44.914986,-93.170342,14,232.88309268747088,1.2,3,2025
2025-03-19,475000.0,2025-05-09,475000,4.0,2.5,3043.0,9365.0,Saint Paul,2150 Valley View Pl,55119,44.913396,-93.008825,51,156.09595793624712,1.1428571428571428,3,2025
2025-04-06,310000.0,2025-04-30,315000,3.0,1.0,1562.0,24045.0,Saint Paul,1355 Flandrau St,55106,44.982292,-93.028152,24,198.46350832266324,1.5,4,2025
2025-01-17,359900.0,2025-04-25,359900,4.0,1.5,1979.0,12066.0,Saint Paul,694 Winslow Ave,55107,44.924922,-93.089084,98,181.85952501263264,1.6,1,2025
2024-06-22,285000.0,2025-02-05,295000,3.0,1.0,1635.0,9365.0,Saint Paul,1884 Carroll Ave,55104,44.950221,-93.179908,228,174.3119266055046,1.5,6,2024
2025-03-04,260000.0,2025-04-30,282000,3.0,2.0,1961.0,1102.0,Saint Paul,1140 Lane Pl,55106,44.975759,-93.048794,57,132.58541560428353,1.0,3,2025
2025-03-05,500000.0,2025-04-18,485000,3.0,2.0,2100.0,3920.0,Saint Paul,391 Cretin Ave S,55105,44.92973,-93.192803,44,238.0952380952381,1.0,3,2025
2025-02-25,285000.0,2025-04-25,269000,3.0,2.0,1734.0,6273.0,Saint Paul,1027 Desoto St,55130,44.972109,-93.081506,59,164.3598615916955,1.0,2,2025
2025-03-20,349900.0,2025-04-28,382000,4.0,1.0,1628.0,12502.0,Saint Paul,240 Congress St W,55107,44.93197,-93.095781,39,214.92628992628994,2.0,3,2025
2025-04-04,150000.0,2025-04-28,151500,3.0,2.0,1260.0,9278.0,Saint Paul,1263 Farrington St,55117,44.979428,-93.113915,24,119.04761904761905,1.0,4,2025
2025-03-24,299900.0,2025-04-30,295000,3.0,2.5,1512.0,6316.0,Saint Paul,1899 Margaret St,55119,44.961566,-93.020034,37,198.34656084656083,0.8571428571428571,3,2025
2024-09-30,374900.0,2024-12-27,364500,4.0,2.0,1237.0,4922.0,Saint Paul,1411 Wellesley Ave,55105,44.931769,-93.15989,88,303.07194826192404,1.3333333333333333,9,2024
2025-01-11,199999.0,2025-03-03,198000,2.0,1.0,946.0,2091.0,Saint Paul,509 Hopkins St,55130,44.958524,-93.078765,51,211.4154334038055,1.0,1,2025
2025-04-10,299900.0,2025-05-05,350000,4.0,1.0,1494.0,4400.0,Saint Paul,371 Emma St,55102,44.933584,-93.115469,25,200.73627844712183,2.0,4,2025
2025-03-24,300000.0,2025-04-30,300000,3.0,2.0,2202.0,10629.0,Saint Paul,101 McKnight Rd N,55119,44.943982,-93.005279,37,136.23978201634878,1.0,3,2025
2025-02-13,229900.0,2025-04-24,229000,3.0,1.5,1096.0,4922.0,Saint Paul,955 Albemarle St,55117,44.969971,-93.107597,70,209.76277372262774,1.2,2,2025
2025-01-13,900000.0,2025-04-30,873000,5.0,3.5,4094.0,5968.0,Saint Paul,813 Goodrich Ave,55105,44.93811,-93.134438,107,219.83390327308257,1.1111111111111112,1,2025
2025-03-25,279900.0,2025-05-15,279900,2.0,1.0,1120.0,3049.0,Saint Paul,445 Morton St W,55107,44.925834,-93.1041,51,249.91071428571428,1.0,3,2025
2025-01-28,299000.0,2025-03-21,290000,3.0,1.0,1440.0,6490.0,Saint Paul,658 Ohio St,55107,44.926188,-93.097343,52,207.63888888888889,1.5,1,2025
2025-03-05,218000.0,2025-05-16,210000,4.0,2.0,1668.0,6316.0,Saint Paul,1067 Bush Ave,55106,44.965152,-93.05546,72,130.69544364508394,1.3333333333333333,3,2025
2024-09-27,200000.0,2025-01-10,205300,3.0,2.0,1628.0,4835.0,Saint Paul,1319 Burr St,55130,44.980849,-93.080262,105,122.85012285012284,1.0,9,2024
2024-09-27,1999000.0,2025-01-31,2300000,9.0,13.0,15294.0,26572.0,Saint Paul,325 Dayton Ave,55102,44.947784,-93.113804,126,130.70485157578136,0.6428571428571429,9,2024
2025-04-01,257000.0,2025-05-22,257000,3.0,1.5,1353.0,4574.0,Saint Paul,117 Winifred St W,55107,44.931618,-93.090693,51,189.94826311899482,1.2,4,2025
2025-04-21,119900.0,2025-05-22,123500,1.0,2.0,626.0,5489.0,Saint Paul,2070 Stillwater Ave E,55119,44.968911,-93.013111,31,191.5335463258786,0.3333333333333333,4,2025
2025-04-15,290000.0,2025-05-21,321000,3.0,2.0,1539.0,7405.0,Saint Paul,1750 Minnehaha Ave E,55106,44.962837,-93.026487,36,188.4340480831709,1.0,4,2025
2025-03-24,293700.0,2025-04-30,307000,4.0,2.0,1502.0,8015.0,Saint Paul,1136 Hubbard Ave,55104,44.965436,-93.148156,37,195.5392809587217,1.3333333333333333,3,2025
2025-02-20,205000.0,2025-03-27,212000,3.0,1.0,2273.0,6578.0,Saint Paul,877 Desoto St,55130,44.967677,-93.081568,35,90.18917729872415,1.5,2,2025
2025-02-13,280000.0,2025-03-24,277000,3.0,2.0,1400.0,4922.0,Saint Paul,1251 Van Buren Ave,55104,44.962318,-93.152994,39,200.0,1.0,2,2025
2024-10-03,140000.0,2024-12-06,120000,2.0,1.0,972.0,4095.0,Saint Paul,889 York Ave,55106,44.968763,-93.063004,64,144.03292181069958,1.0,10,2024
2025-03-31,220000.0,2025-05-12,225000,3.0,1.0,984.0,4879.0,Saint Paul,240 Sidney St E,55107,44.923718,-93.075567,42,223.5772357723577,1.5,3,2025
2025-02-11,400000.0,2025-03-07,370000,3.0,2.0,1613.0,5097.0,Saint Paul,28 Lexington Pkwy S,55105,44.940638,-93.146239,24,247.98512089274644,1.0,2,2025
2025-03-12,249000.0,2025-05-09,254000,2.0,1.5,1710.0,4835.0,Saint Paul,974 Fuller Ave,55104,44.953679,-93.141205,58,145.6140350877193,0.8,3,2025
2024-11-22,825000.0,2025-05-02,780000,4.0,1.5,3066.0,7841.0,Saint Paul,2349 Commonwealth Ave,55108,44.97863,-93.198536,161,269.0802348336595,1.6,11,2024
2025-03-06,299000.0,2025-04-15,285000,3.0,1.5,1510.0,4835.0,Saint Paul,794 Hyacinth Ave E,55106,44.979962,-93.066952,40,198.01324503311258,1.2,3,2025
2025-04-15,499900.0,2025-05-15,515000,3.0,2.0,1328.0,6882.0,Saint Paul,741 Mount Curve Blvd,55116,44.919181,-93.19598,30,376.4307228915663,1.0,4,2025
2025-02-13,454900.0,2025-04-30,448000,3.0,2.0,1876.0,5097.0,Saint Paul,1779 James Ave,55105,44.928186,-93.175463,76,242.48400852878464,1.0,2,2025
2025-03-13,475000.0,2025-05-05,510000,3.0,2.5,2482.0,11587.0,Saint Paul,2437 Stewart Ave,55116,44.900455,-93.166529,53,191.37792103142627,0.8571428571428571,3,2025
2025-04-01,279900.0,2025-05-12,280000,4.0,3.0,2120.0,5227.0,Saint Paul,947 6th St E,55106,44.960621,-93.06045,41,132.02830188679246,1.0,4,2025
2025-03-07,270000.0,2025-04-15,280000,3.0,2.0,1317.0,5227.0,Saint Paul,1830 Nevada Ave E,55119,44.985372,-93.023084,39,205.0113895216401,1.0,3,2025
2025-02-03,495000.0,2025-03-24,495000,5.0,5.5,2520.0,8712.0,Saint Paul,673 Robert St S,55107,44.92559,-93.081154,49,196.42857142857142,0.7692307692307693,2,2025
2024-12-20,140000.0,2025-01-17,135000,2.0,1.0,996.0,5881.0,Saint Paul,1565 7th St E,55106,44.967002,-93.034376,28,140.56224899598394,1.0,12,2024
2025-03-05,175000.0,2025-04-24,170000,3.0,1.0,1036.0,3920.0,Saint Paul,559 Forest St,55106,44.958175,-93.061231,50,168.9189189189189,1.5,3,2025
2025-01-10,155000.0,2025-01-31,140000,3.0,2.0,1323.0,4922.0,Saint Paul,869 3rd St E,55106,44.956988,-93.063971,21,117.15797430083144,1.0,1,2025
2025-02-01,169900.0,2025-03-13,160000,2.0,1.0,1310.0,4487.0,Saint Paul,911 Jenks Ave,55106,44.971483,-93.061994,40,129.6946564885496,1.0,2,2025
2025-05-19,215000.0,2025-05-20,215000,2.0,1.5,960.0,3999.0,Saint Paul,1818 Case Ave E,55119,44.970073,-93.023705,1,223.95833333333334,0.8,5,2025
2025-03-06,225000.0,2025-05-02,240500,3.0,1.0,1300.0,4879.0,Saint Paul,1470 Blair Ave,55104,44.96084,-93.16258,57,173.07692307692307,1.5,3,2025
2025-03-26,305000.0,2025-05-08,315000,3.0,1.0,1427.0,4792.0,Saint Paul,1486 Minnehaha Ave W,55104,44.962631,-93.163356,43,213.73510861948142,1.5,3,2025
2025-04-05,295000.0,2025-05-07,295000,3.0,1.5,1334.0,4922.0,Saint Paul,345 Michigan St,55102,44.934969,-93.114487,32,221.13943028485758,1.2,4,2025
2025-04-28,325000.0,2025-05-30,350000,3.0,2.0,1842.0,8102.0,Saint Paul,1471 Etna St,55106,44.985606,-93.042219,32,176.4386536373507,1.0,4,2025
2024-12-13,350000.0,2024-12-13,350000,4.0,1.5,1590.0,7100.0,Saint Paul,2016 Iglehart Ave,55104,44.949162,-93.18552,0,220.125786163522,1.6,12,2024
2025-03-13,509900.0,2025-05-27,497000,4.0,3.0,2074.0,479.0,Saint Paul,1993 Randolph Ave,55105,44.927333,-93.184483,75,245.85342333654773,1.0,3,2025
2025-04-01,560000.0,2025-05-16,547500,4.0,2.0,2030.0,4922.0,Saint Paul,1756 Jefferson Ave,55105,44.930391,-93.17447,45,275.86206896551727,1.3333333333333333,4,2025
2025-04-11,335000.0,2025-05-27,355000,4.0,3.0,2510.0,7841.0,Saint Paul,1236 Churchill St,55103,44.978438,-93.14455,46,133.46613545816734,1.0,4,2025
2025-03-24,315000.0,2025-05-27,335000,3.0,1.5,1943.0,6534.0,Saint Paul,1450 Nevada Ave E,55106,44.985407,-93.039067,64,162.12043232115286,1.2,3,2025
2024-11-08,269900.0,2025-02-07,275800,3.0,1.0,1397.0,4617.0,Saint Paul,1501 Margaret St,55106,44.961582,-93.03704,91,193.19971367215462,1.5,11,2024
2025-03-01,359900.0,2025-05-29,370000,3.0,2.5,1869.0,5184.0,Saint Paul,1597 Merrill St,55108,44.989338,-93.153058,89,192.56286784376672,0.8571428571428571,3,2025
2025-01-15,249900.0,2025-04-18,249900,2.0,1.0,780.0,5576.0,Saint Paul,673 Hazel St N,55119,44.961697,-93.020626,93,320.38461538461536,1.0,1,2025
2024-11-01,299900.0,2024-12-05,298000,3.0,2.0,1561.0,3703.0,Saint Paul,681 Simpson St,55104,44.961633,-93.164016,34,192.12043561819345,1.0,11,2024
2025-04-22,575000.0,2025-05-15,630000,4.0,2.0,2144.0,5532.0,Saint Paul,974 Osceola Ave,55105,44.93548,-93.141083,23,268.19029850746267,1.3333333333333333,4,2025
2024-09-14,350000.0,2025-02-19,350000,4.0,1.5,1966.0,7405.0,Saint Paul,12 Winthrop St S,55119,44.94064,-93.009625,158,178.0264496439471,1.6,9,2024
2024-12-07,81000.0,2025-01-03,81000,2.0,1.5,1204.0,4922.0,Saint Paul,527 Edmund Ave,55103,44.958712,-93.122378,27,67.27574750830564,0.8,12,2024
2025-04-02,280000.0,2025-05-16,285000,3.0,2.0,1373.0,6229.0,Saint Paul,745 Manomin Ave,55107,44.923481,-93.100988,44,203.93299344501094,1.0,4,2025
2025-03-24,284900.0,2025-05-12,288000,2.0,2.0,1546.0,14593.0,Saint Paul,1868 Minnehaha Ave E,55119,44.962593,-93.021611,49,184.28201811125484,0.6666666666666666,3,2025
2025-03-21,450000.0,2025-05-15,485000,3.0,2.5,1730.0,5009.0,Saint Paul,2156 Stanford Ave,55105,44.932249,-93.191512,55,260.11560693641616,0.8571428571428571,3,2025
2025-03-11,359900.0,2025-05-14,360000,3.0,1.0,1667.0,6229.0,Saint Paul,905 Iowa Ave W,55117,44.989444,-93.138198,64,215.8968206358728,1.5,3,2025
2025-02-11,480000.0,2025-05-02,480000,4.0,2.0,2558.0,9148.0,Saint Paul,868 Mound St,55106,44.949409,-93.061856,80,187.64659890539485,1.3333333333333333,2,2025
2025-04-25,330000.0,2025-05-30,365000,3.0,1.0,1615.0,4008.0,Saint Paul,1033 Churchill St,55103,44.972212,-93.145802,35,204.33436532507739,1.5,4,2025
2025-04-09,250000.0,2025-05-20,261000,4.0,2.0,1726.0,4356.0,Saint Paul,867 Jordan Ave,55119,44.967614,-93.017567,41,144.8435689455388,1.3333333333333333,4,2025
2025-03-26,244900.0,2025-05-16,255000,3.0,1.0,1073.0,5227.0,Saint Paul,948 Margaret St,55106,44.960991,-93.060455,51,228.2385834109972,1.5,3,2025
2025-03-28,219900.0,2025-05-16,219900,2.0,1.0,1093.0,6665.0,Saint Paul,1165 Breen St,55106,44.976325,-93.026947,49,201.1893870082342,1.0,3,2025
2025-03-20,385000.0,2025-05-08,385000,4.0,2.0,2025.0,5009.0,Saint Paul,680 Fairview Ave N,55104,44.96161,-93.176868,49,190.12345679012347,1.3333333333333333,3,2025
2025-03-17,359900.0,2025-05-14,355000,5.0,3.0,2018.0,4966.0,Saint Paul,253 Warwick St,55105,44.933769,-93.163574,58,178.34489593657085,1.25,3,2025
2025-04-25,775000.0,2025-05-19,823000,6.0,2.5,3364.0,14375.0,Saint Paul,1737 Summit Ave,55105,44.942037,-93.173835,24,230.3804994054697,1.7142857142857142,4,2025
2024-11-07,450000.0,2025-01-10,480444,3.0,2.0,1923.0,8364.0,Saint Paul,1769 Saunders Ave,55116,44.914594,-93.175014,64,234.00936037441497,1.0,11,2024
2024-11-22,245000.0,2024-12-27,258000,3.0,1.0,1813.0,8407.0,Saint Paul,553 Hoyt Ave E,55130,44.988534,-93.077416,35,135.13513513513513,1.5,11,2024
2025-03-16,279900.0,2025-03-17,265000,5.0,2.0,2174.0,7971.0,Saint Paul,946 Flandrau St,55106,44.969821,-93.027407,1,128.74885004599815,1.6666666666666667,3,2025
2025-02-18,295000.0,2025-03-20,315500,3.0,2.0,1613.0,5009.0,Saint Paul,239 Robie St E,55107,44.930028,-93.074634,30,182.8890266584005,1.0,2,2025
2024-10-30,237500.0,2025-01-10,237500,3.0,1.0,1230.0,4748.0,Saint Paul,1225 Arkwright St,55130,44.978018,-93.083994,72,193.08943089430895,1.5,10,2024
2024-11-27,249900.0,2025-02-28,249900,3.0,2.0,1075.0,6186.0,Saint Paul,1733 Montana Ave E,55106,44.987688,-93.027049,93,232.46511627906978,1.0,11,2024
2025-03-10,244900.0,2025-05-05,244900,3.0,2.0,1606.0,4966.0,Saint Paul,605 Cook Ave E,55130,44.973173,-93.07481,56,152.4906600249066,1.0,3,2025
2024-11-14,324900.0,2024-12-20,336000,5.0,3.0,2183.0,9017.0,Saint Paul,1263 Edgerton St,55130,44.979353,-93.076498,36,148.83188273018783,1.25,11,2024
2024-11-22,399900.0,2025-01-10,425000,3.0,1.0,1329.0,5227.0,Saint Paul,1560 Holton St,55108,44.98806,-93.160102,49,300.90293453724604,1.5,11,2024
2024-09-10,282500.0,2024-12-19,283974,3.0,2.0,1695.0,5336.0,Saint Paul,630 White Bear Ave N,55106,44.960452,-93.024983,100,166.66666666666666,1.0,9,2024
2025-02-18,201000.0,2025-03-31,203000,1.0,1.0,588.0,4792.0,Saint Paul,939 Juno Ave,55102,44.926184,-93.139806,41,341.83673469387753,0.5,2,2025
2025-01-09,800000.0,2025-03-28,800000,5.0,2.5,3305.0,8320.0,Saint Paul,1668 Portland Ave,55104,44.942591,-93.171049,78,242.05748865355523,1.4285714285714286,1,2025
2024-10-17,299900.0,2024-12-31,295000,3.0,2.0,1176.0,4792.0,Saint Paul,1764 Dayton Ave,55104,44.947189,-93.175068,75,255.01700680272108,1.0,10,2024
2024-11-27,280000.0,2024-12-30,280000,3.0,2.0,1872.0,6098.0,Saint Paul,930 Hawthorne Ave E,55106,44.978169,-93.061282,33,149.57264957264957,1.0,11,2024
2024-10-22,299990.0,2025-03-31,300000,4.0,2.0,1908.0,9714.0,Saint Paul,1253 Etna St,55106,44.979077,-93.042219,160,157.22746331236897,1.3333333333333333,10,2024
2025-01-24,194000.0,2025-02-14,201000,3.0,1.0,1069.0,4879.0,Saint Paul,1123 Magnolia Ave E,55106,44.97418,-93.052945,21,181.47801683816652,1.5,1,2025
2024-10-09,255000.0,2024-12-06,255000,3.0,2.0,1688.0,14593.0,Saint Paul,1847 Margaret St,55119,44.961793,-93.022374,58,151.06635071090048,1.0,10,2024
2025-04-07,314900.0,2025-05-05,335000,4.0,2.0,1932.0,6011.0,Saint Paul,245 Annapolis St E,55118,44.919819,-93.075278,28,162.99171842650102,1.3333333333333333,4,2025
2025-02-05,850000.0,2025-04-07,840000,5.0,3.5,4348.0,7405.0,Saint Paul,853 Lincoln Ave,55105,44.939177,-93.136004,61,195.4921803127875,1.1111111111111112,2,2025
2024-12-27,299900.0,2025-02-21,320000,5.0,2.0,1866.0,7057.0,Saint Paul,1754 Clear Ave,55106,44.981777,-93.026195,56,160.7181136120043,1.6666666666666667,12,2024
2024-08-31,180000.0,2024-12-23,180000,3.0,1.0,2500.0,3920.0,Saint Paul,1511 Case Ave,55106,44.970562,-93.036706,114,72.0,1.5,8,2024
2025-01-17,295000.0,2025-03-11,298000,3.0,2.0,1632.0,5140.0,Saint Paul,1969 4th St E,55119,44.958817,-93.017192,53,180.75980392156862,1.0,1,2025
2024-11-01,185000.0,2025-03-11,170000,2.0,1.0,1580.0,4008.0,Saint Paul,963 Western Ave N,55117,44.970332,-93.116448,130,117.0886075949367,1.0,11,2024
2025-03-18,260000.0,2025-04-25,270000,3.0,2.0,1801.0,5009.0,Saint Paul,1055 Wilson Ave,55106,44.954311,-93.055953,38,144.36424208772905,1.0,3,2025
2025-03-29,529900.0,2025-04-24,535000,4.0,2.0,2351.0,6926.0,Saint Paul,985 Iowa Ave W,55117,44.989469,-93.141711,26,225.39344959591662,1.3333333333333333,3,2025
2025-01-04,130000.0,2025-01-24,125000,2.0,1.0,700.0,6970.0,Saint Paul,1365 Alaska Ave,55116,44.916396,-93.147046,20,185.71428571428572,1.0,1,2025
2025-01-03,215000.0,2025-01-31,227700,3.0,1.0,1458.0,6186.0,Saint Paul,1617 Arlington Ave E,55106,44.985003,-93.032106,28,147.4622770919067,1.5,1,2025
2025-03-21,325000.0,2025-04-28,351500,2.0,1.0,1349.0,5184.0,Saint Paul,1591 Fernwood St,55108,44.989188,-93.151762,38,240.91919940696812,1.0,3,2025
2025-02-03,695000.0,2025-04-10,686500,4.0,2.5,2096.0,7405.0,Saint Paul,2324 Brewster St,55108,44.976619,-93.189709,66,331.58396946564886,1.1428571428571428,2,2025
2024-12-04,219900.0,2025-04-02,219900,2.0,1.5,1145.0,4792.0,Saint Paul,286 Bates Ave,55106,44.955447,-93.067986,119,192.05240174672488,0.8,12,2024
2025-02-14,370000.0,2025-03-21,370000,4.0,2.0,2158.0,6839.0,Saint Paul,1545 Etna St,55106,44.987934,-93.042202,35,171.45505097312326,1.3333333333333333,2,2025
2025-03-07,575000.0,2025-04-15,615000,4.0,2.5,2159.0,7710.0,Saint Paul,2119 Iglehart Ave,55104,44.949978,-93.189693,39,266.3270032422418,1.1428571428571428,3,2025
2024-08-09,309000.0,2025-03-21,290000,3.0,2.0,1858.0,7318.0,Saint Paul,2044 Fremont Ave E,55119,44.957385,-93.013994,224,166.30785791173304,1.0,8,2024
2024-10-18,239000.0,2025-03-13,162000,2.0,1.0,1111.0,6098.0,Saint Paul,1294 Grand Ave,55105,44.939717,-93.154928,146,215.12151215121511,1.0,10,2024
2025-03-25,400000.0,2025-03-25,386600,3.0,2.0,1690.0,6098.0,Saint Paul,2082 Juno Ave,55116,44.925901,-93.188392,0,236.68639053254438,1.0,3,2025
2024-10-03,275000.0,2025-03-25,275000,2.0,1.5,1303.0,13940.0,Saint Paul,1410 Mechanic Ave,55106,44.972338,-93.042436,173,211.05141980046048,0.8,10,2024
2024-10-08,259900.0,2024-12-09,274900,2.0,2.0,1174.0,3790.0,Saint Paul,657 Bidwell St,55107,44.926139,-93.091334,62,221.37989778534924,0.6666666666666666,10,2024
2024-10-30,295000.0,2025-01-06,275000,4.0,3.0,1741.0,9278.0,Saint Paul,1024 Kilburn St,55103,44.971908,-93.140176,68,169.4428489373923,1.0,10,2024
2024-12-18,360000.0,2025-03-17,358000,3.0,2.0,1858.0,10759.0,Saint Paul,1054 Saint Paul Ave,55116,44.910009,-93.182724,89,193.756727664155,1.0,12,2024
2025-01-31,215000.0,2025-02-27,220000,3.0,1.0,1323.0,6098.0,Saint Paul,612 Orleans St,55107,44.927438,-93.099659,27,162.50944822373393,1.5,1,2025
2024-12-10,295000.0,2025-01-03,297000,4.0,2.0,1789.0,5009.0,Saint Paul,1238 Seminary Ave,55104,44.964515,-93.15253,24,164.89659027389604,1.3333333333333333,12,2024
2025-01-30,1099000.0,2025-04-03,1000000,5.0,3.5,4112.0,15725.0,Saint Paul,649 Summit Ave,55105,44.941625,-93.127484,63,267.26653696498056,1.1111111111111112,1,2025
2025-03-12,174900.0,2025-04-14,180000,4.0,1.0,1262.0,7405.0,Saint Paul,1294 Westminster St,55130,44.979947,-93.085819,33,138.58954041204439,2.0,3,2025
2025-01-16,250000.0,2025-03-28,240000,3.0,1.5,1390.0,4792.0,Saint Paul,411 Thomas Ave,55103,44.959625,-93.117411,71,179.85611510791367,1.2,1,2025
2025-03-17,719900.0,2025-04-24,779000,4.0,3.5,3618.0,7187.0,Saint Paul,323 Mount Curve Blvd,55105,44.931928,-93.193986,38,198.97733554449974,0.8888888888888888,3,2025
2025-03-10,249900.0,2025-04-11,305000,2.0,1.0,690.0,6229.0,Saint Paul,861 Wilder St S,55116,44.915326,-93.185789,32,362.17391304347825,1.0,3,2025
2025-03-12,269900.0,2025-05-01,305000,3.0,1.5,1612.0,14505.0,Saint Paul,1437 Mechanic Ave,55106,44.973075,-93.040723,50,167.4317617866005,1.2,3,2025
2024-11-25,489000.0,2025-01-03,465000,4.0,2.5,2116.0,4792.0,Saint Paul,1780 Hartford Ave,55116,44.923138,-93.175515,39,231.09640831758034,1.1428571428571428,11,2024
2025-02-26,247000.0,2025-04-15,247000,2.0,1.0,1001.0,4792.0,Saint Paul,977 Fuller Ave,55104,44.954186,-93.141358,48,246.75324675324674,1.0,2,2025
2025-02-06,259900.0,2025-03-28,245000,3.0,2.0,1296.0,6970.0,Saint Paul,46 Winona St E,55107,44.921134,-93.083125,50,200.54012345679013,1.0,2,2025
2024-12-23,290000.0,2025-03-27,295000,3.0,2.5,1608.0,5793.0,Saint Paul,2024 California Ave E,55119,44.990901,-93.014742,94,180.34825870646767,0.8571428571428571,12,2024
2024-07-30,299900.0,2025-01-13,274500,2.0,1.5,1164.0,6970.0,Saint Paul,1359 Alaska Ave,55116,44.916259,-93.147048,167,257.64604810996565,0.8,7,2024
2024-12-29,280000.0,2025-03-12,285000,4.0,2.5,2050.0,6534.0,Saint Paul,1863 Mechanic Ave,55119,44.97325,-93.021925,73,136.58536585365854,1.1428571428571428,12,2024
2024-12-09,319500.0,2025-01-27,330000,5.0,3.0,1842.0,4835.0,Saint Paul,1295 Ross Ave,55106,44.965775,-93.045951,49,173.4527687296417,1.25,12,2024
2024-11-08,259900.0,2025-02-14,270000,3.0,1.5,1752.0,4312.0,Saint Paul,1063 Norton St,55117,44.973429,-93.120357,98,148.3447488584475,1.2,11,2024
2025-01-04,675000.0,2025-02-20,675000,3.0,2.0,2278.0,7405.0,Saint Paul,1661 Hillcrest Ave,55116,44.917291,-93.170494,47,296.31255487269533,1.0,1,2025
2024-09-05,484900.0,2025-01-27,479000,4.0,2.5,2078.0,6534.0,Saint Paul,1062 Bowdoin St,55116,44.909396,-93.188223,144,233.34937439846007,1.1428571428571428,9,2024
2025-02-14,230000.0,2025-02-26,250000,3.0,1.5,1346.0,5358.0,Saint Paul,1541 Hamline Ave N,55108,44.987628,-93.157004,12,170.87667161961366,1.2,2,2025
2024-12-05,210000.0,2025-01-28,193500,1.0,1.0,837.0,5001.0,Saint Paul,1148 Magnolia Ave E,55106,44.973662,-93.05202,54,250.89605734767025,0.5,12,2024
2025-02-03,225000.0,2025-03-12,210000,3.0,1.5,1690.0,4356.0,Saint Paul,1149 Selby Ave,55104,44.946879,-93.1486,37,133.1360946745562,1.2,2,2025
2025-02-24,300000.0,2025-03-31,300000,5.0,2.5,1904.0,8712.0,Saint Paul,119 Granite St,55117,44.966329,-93.095371,35,157.56302521008402,1.4285714285714286,2,2025
2025-02-27,299900.0,2025-03-24,307500,4.0,1.0,1696.0,4922.0,Saint Paul,1957 Nevada Ave E,55119,44.985893,-93.017854,25,176.82783018867926,2.0,2,2025
2024-10-08,319900.0,2025-02-07,310000,3.0,2.0,1154.0,6098.0,Saint Paul,720 Randolph Ave,55102,44.926608,-93.130175,122,277.209705372617,1.0,10,2024
2024-09-21,560000.0,2025-03-03,550000,4.0,2.5,1800.0,11238.0,Saint Paul,2246 Commonwealth Ave,55108,44.979965,-93.194889,163,311.1111111111111,1.1428571428571428,9,2024
2024-08-30,250000.0,2025-03-07,235000,4.0,1.5,1562.0,5227.0,Saint Paul,411 Forest St,55106,44.953686,-93.06111,189,160.05121638924456,1.6,8,2024
2025-02-28,385000.0,2025-03-31,460000,2.0,1.0,1580.0,5140.0,Saint Paul,1425 Fairmount Ave,55105,44.937253,-93.160399,31,243.67088607594937,1.0,2,2025
2025-03-18,274900.0,2025-04-22,255000,3.0,1.5,1300.0,10149.0,Saint Paul,998 Palace Ave,55102,44.928436,-93.142601,35,211.46153846153845,1.2,3,2025
2025-02-07,290000.0,2025-04-29,290000,4.0,2.0,1510.0,5053.0,Saint Paul,1264 Reaney Ave,55106,44.96377,-93.047128,81,192.05298013245033,1.3333333333333333,2,2025
2024-12-11,374900.0,2024-12-20,390000,3.0,1.0,1296.0,5053.0,Saint Paul,1663 Scheffer Ave,55116,44.921817,-93.17061,9,289.2746913580247,1.5,12,2024
2024-11-12,447000.0,2025-01-10,447000,4.0,3.0,2068.0,5009.0,Saint Paul,1306 Bayard Ave,55116,44.922179,-93.155404,59,216.15087040618957,1.0,11,2024
2024-10-05,249000.0,2025-02-28,245000,2.0,1.0,784.0,5837.0,Saint Paul,421 Goodhue St,55102,44.936572,-93.117673,146,317.6020408163265,1.0,10,2024
2024-11-04,300000.0,2024-12-13,320000,3.0,2.0,1596.0,8102.0,Saint Paul,1490 Birmingham St,55106,44.986252,-93.040188,39,187.9699248120301,1.0,11,2024
2025-01-03,249900.0,2025-01-31,270000,3.0,2.0,1763.0,6656.0,Saint Paul,478 Lafond Ave,55103,44.959922,-93.120333,28,141.747022121384,1.0,1,2025
2025-02-08,429000.0,2025-03-14,452000,3.0,2.0,1778.0,6273.0,Saint Paul,975 Iowa Ave W,55117,44.989466,-93.141293,34,241.28233970753655,1.0,2,2025
2024-12-04,187400.0,2024-12-30,185000,2.0,1.0,1250.0,4704.0,Saint Paul,234 Ivy Ave W,55117,44.980744,-93.109968,26,149.92,1.0,12,2024
2024-09-09,800000.0,2024-12-06,800000,3.0,2.5,2771.0,9540.0,Saint Paul,535 Montcalm Pl,55116,44.925386,-93.148967,88,288.704438830747,0.8571428571428571,9,2024
2024-10-30,420000.0,2025-01-22,416000,3.0,1.5,2128.0,3223.0,Saint Paul,107 Milton St N,55104,44.944573,-93.1392,84,197.3684210526316,1.2,10,2024
2025-03-02,265000.0,2025-03-27,258015,3.0,2.0,1107.0,4792.0,Saint Paul,948 Watson Ave,55102,44.923934,-93.140258,25,239.38572719060525,1.0,3,2025
2025-01-17,925000.0,2025-03-27,925000,3.0,3.0,3445.0,18382.0,Saint Paul,1189 Summit Ave,55105,44.942002,-93.150275,69,268.50507982583457,0.75,1,2025
2025-03-22,499900.0,2025-04-14,531000,3.0,2.0,1680.0,5968.0,Saint Paul,1384 Laurel Ave,55104,44.944734,-93.158801,23,297.5595238095238,1.0,3,2025
2024-12-26,340000.0,2025-02-12,336000,3.0,3.0,1480.0,4879.0,Saint Paul,1469 Western Ave N,55117,44.985455,-93.116401,48,229.72972972972974,0.75,12,2024
2024-11-01,219000.0,2025-01-10,219000,4.0,1.0,1419.0,6926.0,Saint Paul,1139 Minnehaha Ave E,55106,44.963335,-93.052348,70,154.3340380549683,2.0,11,2024
2025-03-19,249900.0,2025-05-02,253000,3.0,1.0,1040.0,6621.0,Saint Paul,246 Belvidere St E,55107,44.921918,-93.075499,44,240.28846153846155,1.5,3,2025
2025-04-02,275000.0,2025-05-05,316000,4.0,2.0,1330.0,4487.0,Saint Paul,1151 Hamline Ave N,55108,44.975957,-93.157159,33,206.7669172932331,1.3333333333333333,4,2025
2024-09-30,1095000.0,2024-12-09,1100000,5.0,2.5,4142.0,11238.0,Saint Paul,1306 Bohland Pl,55116,44.915836,-93.155388,70,264.3650410429744,1.4285714285714286,9,2024
2024-10-23,360000.0,2025-04-24,350000,4.0,2.0,1523.0,4879.0,Saint Paul,978 Desoto St,55130,44.970729,-93.080816,183,236.37557452396587,1.3333333333333333,10,2024
2025-04-14,384900.0,2025-05-01,407500,2.0,2.0,1525.0,8015.0,Saint Paul,2152 Powers Ave,55119,44.942763,-93.009313,17,252.39344262295083,0.6666666666666666,4,2025
2024-11-27,259900.0,2025-01-16,263000,3.0,1.5,1250.0,3877.0,Saint Paul,1120 Woodbridge St,55117,44.974926,-93.10814,50,207.92,1.2,11,2024
2024-12-06,199900.0,2025-01-31,209000,4.0,1.5,1491.0,5009.0,Saint Paul,781 York Ave,55106,44.968745,-93.067427,56,134.0710932260228,1.6,12,2024
2025-03-13,264900.0,2025-04-30,277000,3.0,1.0,1175.0,3920.0,Saint Paul,262 Curtice St E,55107,44.922819,-93.074942,48,225.4468085106383,1.5,3,2025
2025-03-19,249900.0,2025-04-11,286000,1.0,2.0,1591.0,4922.0,Saint Paul,1111 Orange Ave E,55106,44.979611,-93.053635,23,157.07102451288497,0.3333333333333333,3,2025
2025-01-30,200000.0,2025-04-01,199000,4.0,1.5,1640.0,3615.0,Saint Paul,670 Edmund Ave,55104,44.958173,-93.128397,61,121.95121951219512,1.6,1,2025
2025-03-20,350000.0,2025-05-01,421000,3.0,1.0,1300.0,5097.0,Saint Paul,380 Saratoga St S,55105,44.93005,-93.164119,42,269.2307692307692,1.5,3,2025
2025-03-28,209900.0,2025-05-16,215000,4.0,1.5,1664.0,4051.0,Saint Paul,913 Sherburne Ave,55104,44.956892,-93.138576,49,126.14182692307692,1.6,3,2025
2025-03-10,335000.0,2025-03-27,335000,3.0,1.5,1532.0,4966.0,Saint Paul,792 Howell St N,55104,44.964914,-93.180698,17,218.66840731070496,1.2,3,2025
2025-02-25,305000.0,2025-04-10,320000,4.0,1.5,1435.0,5009.0,Saint Paul,889 Ivy Ave E,55106,44.981401,-93.062873,44,212.54355400696863,1.6,2,2025
2025-02-14,839900.0,2025-03-21,839900,5.0,3.0,2798.0,6752.0,Saint Paul,1844 Eleanor Ave,55116,44.920425,-93.17831,35,300.1786990707648,1.25,2,2025
2025-02-14,360000.0,2025-02-28,380000,2.0,1.0,1415.0,4966.0,Saint Paul,1296 Highland Pkwy,55116,44.91946,-93.155019,14,254.41696113074204,1.0,2,2025
2025-02-12,373000.0,2025-03-10,388000,3.0,2.0,1552.0,4356.0,Saint Paul,1474 Hague Ave,55104,44.945551,-93.162552,26,240.33505154639175,1.0,2,2025
2025-04-23,299900.0,2025-05-28,325000,3.0,2.0,1807.0,4792.0,Saint Paul,1059 Como Pl,55103,44.973068,-93.13473,35,165.96568898727173,1.0,4,2025
2025-04-10,639900.0,2025-05-29,700000,4.0,2.5,2134.0,5053.0,Saint Paul,1674 Juliet Ave,55105,44.929471,-93.171111,49,299.8594189315839,1.1428571428571428,4,2025
2025-03-21,280000.0,2025-05-16,285000,3.0,2.0,1900.0,7405.0,Saint Paul,1727 Euclid St,55106,44.95527,-93.027398,56,147.3684210526316,1.0,3,2025
2024-11-21,341600.0,2025-05-02,341610,4.0,3.0,2746.0,7492.0,Saint Paul,735 Margaret St,55106,44.961474,-93.069727,162,124.39912600145666,1.0,11,2024
2025-03-24,218500.0,2025-05-08,223000,3.0,1.0,1874.0,3964.0,Saint Paul,459 Milton St N,55104,44.955053,-93.139208,45,116.59551760939168,1.5,3,2025
2025-03-20,215000.0,2025-05-05,212000,2.0,1.0,979.0,5097.0,Saint Paul,986 Carroll Ave,55104,44.950059,-93.142065,46,219.61184882533198,1.0,3,2025
2025-04-23,265000.0,2025-05-27,285000,3.0,2.0,1368.0,8538.0,Saint Paul,1017 Stinson St,55103,44.969554,-93.142969,34,193.71345029239765,1.0,4,2025
2025-01-06,170000.0,2025-03-03,158000,2.0,1.0,1051.0,4792.0,Saint Paul,1273 Margaret St,55106,44.961562,-93.046806,56,161.75071360608945,1.0,1,2025
2024-08-29,1100000.0,2025-01-15,1015000,4.0,4.5,4963.0,9975.0,Saint Paul,780 Summit Ave,55105,44.940864,-93.132985,139,221.6401370139029,0.7272727272727273,8,2024
2025-04-23,280000.0,2025-05-23,280000,4.0,2.0,1804.0,6490.0,Saint Paul,2512 Nokomis Ave,55119,44.9782,-93.008261,30,155.21064301552107,1.3333333333333333,4,2025
2025-01-09,324900.0,2025-02-26,341500,2.0,2.0,1340.0,4966.0,Saint Paul,559 Frontenac Pl,55104,44.957125,-93.205535,48,242.46268656716418,0.6666666666666666,1,2025
2025-01-28,235000.0,2025-02-26,252500,2.0,1.0,764.0,5097.0,Saint Paul,906 Young St,55104,44.968311,-93.173053,29,307.5916230366492,1.0,1,2025
2025-03-19,249900.0,2025-04-30,250000,3.0,1.0,1183.0,3920.0,Saint Paul,1038 Argyle St,55103,44.972333,-93.142294,42,211.24260355029585,1.5,3,2025
2024-10-31,699900.0,2024-12-13,690000,4.0,3.5,2732.0,6882.0,Saint Paul,1090 Palace Ave,55105,44.928563,-93.146153,43,256.18594436310394,0.8888888888888888,10,2024
2025-03-28,350000.0,2025-05-09,342000,3.0,1.5,1512.0,6098.0,Saint Paul,1857 Ford Pkwy,55116,44.918235,-93.178802,42,231.4814814814815,1.2,3,2025
2025-03-21,369900.0,2025-05-09,369900,4.0,2.0,2028.0,10280.0,Saint Paul,1551 York Ave,55106,44.968979,-93.034837,49,182.39644970414201,1.3333333333333333,3,2025
2025-04-04,250000.0,2025-05-08,253750,2.0,1.0,1148.0,2744.0,Saint Paul,1055 Hatch Ave,55103,44.971557,-93.144692,34,217.77003484320556,1.0,4,2025
