list_date,list_price,sold_date,sold_price,beds,baths,sqft,lot_sqft,city,street,zip,latitude,longitude
2025-01-23,500000,2025-02-28,505003,3,2.0,1636,5009,Saint Paul,2098 Pinehurst Ave,55116,44.918628,-93.189055
2024-09-03,189900,2024-12-11,189900,2,1.0,832,4792,Saint Paul,536 Edmund Ave,55103,44.958192,-93.122838
2024-12-20,275000,2025-01-10,266800,3,1.0,1297,6534,Saint Paul,967 California Ave W,55117,44.991249,-93.140914
2024-12-01,324900,2025-01-31,325000,3,1.5,2185,6055,Saint Paul,627-629 Minnehaha Ave E,55130,44.963264,-93.074138
2024-11-19,214900,2025-01-09,210000,2,1.0,926,5001,Saint Paul,1631 Woodbridge St,55117,44.990397,-93.108765
2024-11-15,374900,2024-12-13,391000,3,1.5,1534,4966,Saint Paul,1246 Bayard Ave,55116,44.922167,-93.152861
2025-01-31,209900,2025-03-31,209900,2,1.5,904,4704,Saint Paul,868 Algonquin Ave,55119,44.967562,-93.017718
2025-03-18,425000,2025-04-08,475000,4,1.0,1750,7362,Saint Paul,2129 Sargent Ave,55105,44.935472,-93.190323
2024-10-24,585000,2024-12-12,575000,5,2.5,3945,10629,Saint Paul,1893 Marshall Ave,55104,44.948731,-93.18017
2024-10-04,259900,2025-01-10,260000,3,2.0,1141,6186,Saint Paul,46 Orange Ave W,55117,44.979017,-93.102185
2025-01-25,264900,2025-02-28,285000,2,1.0,1138,7841,Saint Paul,994 Chatsworth St N,55103,44.971162,-93.141206
2025-01-02,429900,2025-02-28,429900,3,2.0,1761,6098,Saint Paul,639 Pascal St S,55116,44.922181,-93.162293
2024-10-28,550000,2024-12-17,563000,3,3.0,3404,12824,Saint Paul,860 Ivy Ave W,55117,44.980805,-93.136377
2025-03-20,319900,2025-04-18,310000,4,2.0,1643,5358,Saint Paul,1517 Dale St N,55117,44.986988,-93.126544
2024-10-18,279000,2025-01-07,279000,3,2.0,1488,4879,Saint Paul,916 Ivy Ave E,55106,44.980881,-93.061875
,,2025-04-21,57000,2,1.0,1029,6360,Saint Paul,1021 Minnehaha Ave E,55106,44.963315,-93.057443
2025-04-15,525000,2025-04-29,575000,3,2.0,2593,5401,Saint Paul,2103 Hartford Ave,55116,44.92368,-93.189167
2025-04-03,225000,2025-05-07,225000,2,1.0,885,5009,Saint Paul,928 Lawson Ave E,55106,44.971864,-93.061378
2025-02-03,275000,2025-03-07,315000,4,1.5,1897,7841,Saint Paul,2139 Cottage Ave E,55119,44.983195,-93.010337
2024-07-26,219999,2024-12-11,220000,3,1.0,1321,4922,Saint Paul,691 Edmund Ave,55104,44.958697,-93.129405
2024-11-04,549000,2024-12-17,549000,2,2.0,1795,8973,Saint Paul,2150 Niles Ave,55116,44.924982,-93.191331
2024-11-13,475000,2025-01-21,475000,3,2.0,1507,4356,Saint Paul,1126 Edgcumbe Rd,55105,44.930251,-93.147762
,,2025-02-03,251250,3,2.0,1504,4961,Saint Paul,1866 Hyacinth Ave E,55119,44.979952,-93.021618
2025-01-15,200000,2025-01-31,200000,3,1.0,1236,4574,Saint Paul,862 Smith Ave S,55107,44.92015,-93.101468
,,2025-05-07,334900,3,1.0,1312,4800,Saint Paul,2210 Saint Anthony Ave,55104,44.956105,-93.195011
2024-10-10,293000,2024-12-11,287000,3,1.0,1340,5184,Saint Paul,1362 Stanford Ave,55105,44.932157,-93.157814
2024-10-22,250000,2024-12-31,255500,5,2.0,1954,3093,Saint Paul,415 Mount Ida St,55130,44.962476,-93.083099
2025-02-13,489900,2025-03-31,532000,3,2.0,1795,5580,Saint Paul,1469 Osceola Ave,55105,44.936343,-93.162341
2024-10-11,240000,2024-12-16,260000,4,2.0,1830,6621,Saint Paul,401 Johnson Pkwy,55106,44.954149,-93.049324
,,2025-01-10,267500,3,1.0,978,5192,Saint Paul,779 Fry St,55104,44.964602,-93.169975
2025-03-08,509900,2025-04-24,485000,4,1.5,2360,6229,Saint Paul,1154 Ivy Ave E,55106,44.980697,-93.052195
,,2025-01-27,200000,3,1.0,2000,7579,Saint Paul,1726 Iowa Ave E,55106,44.988994,-93.027323
,,2025-03-24,110900,2,1.0,1307,4918,Saint Paul,1130 Beech St,55106,44.961914,-93.052668
,,2024-12-19,210000,4,2.0,1995,7754,Saint Paul,1181 Raymond Ave,55108,44.976875,-93.190845
2024-07-12,1350000,2025-01-17,1266455,5,4.5,5991,24916,Saint Paul,1027 Summit Ave,55105,44.941908,-93.143428
2025-02-11,199000,2025-03-20,220000,2,1.0,900,7187,Saint Paul,1732 Beech St,55106,44.96195,-93.02717
2024-06-03,329900,2025-01-20,329900,3,3.0,1248,4639,Saint Paul,852 James Ave,55102,44.927482,-93.136055
,,2025-03-04,187540,4,1.0,1080,3101,Saint Paul,939 Woodbridge St,55117,44.969619,-93.10886
,,2024-12-30,260000,2,1.0,1456,7562,Saint Paul,849 Ivy Ave E,55106,44.981397,-93.064605
2024-11-19,419500,2025-01-07,410000,3,2.0,2708,9888,Saint Paul,1311 Van Buren Ave,55104,44.9623,-93.155623
2025-02-03,259900,2025-03-21,226000,3,1.0,1702,5227,Saint Paul,1935 Cottage Ave E,55119,44.983178,-93.018649
2024-12-30,539900,2025-02-28,595000,4,2.5,1775,4356,Saint Paul,1186 Hague Ave,55104,44.945576,-93.150369
2025-02-18,382500,2025-03-31,382500,3,1.5,1568,6098,Saint Paul,1934 Dorothea Ave,55116,44.90543,-93.181659
2024-10-19,345000,2025-03-03,347000,3,1.0,1506,6534,Saint Paul,565 Frontenac Pl,55104,44.957213,-93.205666
2025-02-16,269900,2025-03-27,269900,3,2.5,1726,5576,Saint Paul,718 Bellows St,55107,44.924359,-93.092332
2024-12-16,1200000,2025-01-03,1200000,6,5.0,5955,8843,Saint Paul,916 Lincoln Ave,55105,44.93859,-93.138734
2024-11-06,1075000,2025-03-17,1060000,4,3.5,3565,4835,Saint Paul,1439 Eleanor Ave,55116,,
2025-01-20,334900,2025-03-03,334900,3,2.0,2075,4879,Saint Paul,1132 Edmund Ave,55104,44.958188,-93.148082
2024-10-08,255000,2025-01-24,237000,3,2.0,2010,7362,Saint Paul,1261 Beech St,55106,44.962455,-93.047243
2024-10-29,250000,2024-12-13,248000,4,2.0,1655,4661,Saint Paul,663 Jefferson Ave,55102,44.930907,-93.127672
,,2024-12-18,275000,3,2.0,1360,8542,Saint Paul,1607 Margaret St,55106,44.961581,-93.032501
2024-09-19,284900,2025-01-03,275000,4,2.0,1433,4400,Saint Paul,984 Jackson St,55117,44.970805,-93.09603
2025-02-20,425000,2025-04-01,422500,3,2.0,1500,4966,Saint Paul,1282 Jefferson Ave,55105,44.930301,-93.15447
2024-11-28,290000,2025-01-10,302500,3,2.0,1697,7100,Saint Paul,410 Hoyt Ave E,55130,44.987945,-93.083217
2025-02-14,189900,2025-04-02,200000,2,1.0,1104,4879,Saint Paul,1160 Beech St,55106,44.961921,-93.051583
2024-11-11,165000,2025-01-17,165000,2,1.0,768,4400,Saint Paul,1166 Jackson St,55117,44.976258,-93.096047
,,2025-01-02,389000,4,3.0,2050,9361,Saint Paul,1427 McAfee St,55106,44.984262,-93.044811
2024-11-04,315000,2025-03-17,325000,3,2.0,1353,9601,Saint Paul,149 Wyoming St E,55107,44.920673,-93.078969
2025-03-26,225000,2025-04-30,250000,3,1.0,1005,10149,Saint Paul,1734 Bush Ave,55106,44.964669,-93.027126
2025-01-10,309900,2025-03-07,320000,3,2.0,1415,8978,Saint Paul,36 E Sandra Lee Dr,55119,44.942181,-93.015927
2025-02-06,279900,2025-03-14,288000,3,1.0,1515,7492,Saint Paul,734 Smith Ave S,55107,44.923919,-93.101446
2025-04-01,185000,2025-05-16,195000,3,1.0,884,5053,Saint Paul,1739 Reaney Ave,55106,44.964276,-93.026897
,,2025-05-22,255000,3,2.0,1102,4674,Saint Paul,411 Curtice St E,55107,44.923275,-93.068091
2025-04-09,350000,2025-05-22,365000,3,2.0,1980,9583,Saint Paul,559 Lexington Pkwy S,55116,44.924683,-93.14708
2025-04-04,299900,2025-05-16,300000,4,2.0,1564,6534,Saint Paul,1662 Euclid St,55106,44.954734,-93.030138
,,2024-12-30,336000,3,1.5,1650,7745,Saint Paul,1264 Jessie St,55130,44.979349,-93.077004
2025-01-24,214900,2025-03-03,221400,2,1.0,878,4704,Saint Paul,1236 Albemarle St,55117,44.97841,-93.106851
2025-01-17,375000,2025-02-26,391000,3,2.5,1666,6098,Saint Paul,1807 Montreal Ave,55116,44.912807,-93.176427
2024-10-10,289900,2025-01-16,289900,3,1.0,1646,5881,Saint Paul,564 Larpenteur Ave E,55117,44.9917,-93.076888
2025-01-07,285000,2025-03-06,295000,2,2.0,1176,7536,Saint Paul,1067 Argyle St,55103,44.97325,-93.143075
2024-12-05,325000,2025-01-08,330000,3,1.0,1367,6708,Saint Paul,1820 Englewood Ave,55104,44.963509,-93.177611
,,2025-03-10,310000,7,3.0,2860,,Saint Paul,693 Saint Albans St N,55104,44.962318,-93.129107
2024-10-11,339500,2025-03-06,330000,5,1.5,1893,5358,Saint Paul,1699 Thomas Ave,55104,44.959531,-93.171906
2024-12-13,289900,2025-01-27,284000,3,2.0,2067,4835,Saint Paul,1636 W Breda Ave,55108,44.976139,-93.169315
2024-09-24,124995,2024-12-20,115000,2,1.0,908,4966,Saint Paul,450 Forest St,55106,44.955196,-93.060687
2024-11-27,225000,2024-12-30,226500,2,1.0,872,6839,Saint Paul,2102 4th St E,55119,44.958275,-93.011803
,,2025-01-08,112000,2,2.0,1596,4966,Saint Paul,659 Edmund Ave,55104,44.958695,-93.12796
,,2025-02-19,42500,3,2.0,1410,7379,Saint Paul,984 Fremont Ave,55106,44.957396,-93.059053
,,2024-12-23,285000,3,1.0,1420,8960,Saint Paul,2087 Burns Ave,55119,44.948922,-93.011971
2024-10-17,565000,2025-03-21,555000,5,3.0,2733,5227,Saint Paul,552 Brimhall St,55116,44.924801,-93.165368
,,2025-04-16,130000,3,1.0,1176,4961,Saint Paul,1258 Blair Ave,55104,44.960892,-93.153305
,,2025-03-12,127500,4,2.0,1645,5001,Saint Paul,487 Sherburne Ave,55103,44.956922,-93.120581
2025-02-16,1095000,2025-02-14,1095000,4,2.5,3678,6839,Saint Paul,2247 Riverwood Pl,55104,44.944948,-93.195004
2024-11-15,310000,2024-12-16,315000,4,2.0,1809,4922,Saint Paul,1987 Maryland Ave E,55119,44.977756,-93.016432
,,2025-04-25,245000,3,1.0,1188,5279,Saint Paul,786 Iglehart Ave,55104,44.949231,-93.13355
,,2025-01-07,210000,3,1.5,1837,5959,Saint Paul,1033 Wakefield Ave,55106,44.953436,-93.056869
2024-11-14,199900,2025-02-07,190000,3,2.0,1078,9757,Saint Paul,732 Burr St,55130,44.963353,-93.079547
2025-03-12,340000,2025-04-04,378500,3,2.0,2062,3920,Saint Paul,1168 Lexington Pkwy N,55103,44.976473,-93.146104
,,2024-12-11,475000,3,1.5,2840,5001,Saint Paul,1791 Bayard Ave,55116,44.92274,-93.175824
,,2024-12-12,220000,3,1.0,1056,5009,Saint Paul,803 Case Ave,55106,44.970559,-93.066649
2025-03-06,650000,2025-04-09,680000,3,2.5,2266,6229,Saint Paul,1971 Bayard Ave,55116,44.92233,-93.183636
2025-02-13,200000,2025-03-10,225000,3,1.5,1135,2178,Saint Paul,573 Charles Ave,55103,44.957807,-93.124435
2025-02-03,349900,2025-03-11,356500,3,2.5,1985,9060,Saint Paul,50 Battle Creek Pl,55119,44.942474,-93.023595
2024-12-03,219900,2025-01-28,219900,3,1.0,1705,1394,Saint Paul,439 Grotto St N,55104,44.954452,-93.131603
,,2025-01-28,100000,2,2.0,1400,4961,Saint Paul,571 Van Buren Ave,55103,44.962315,-93.12449
,,2024-12-10,269000,3,1.0,1048,5706,Saint Paul,2194 Bush Ave E,55119,44.964604,-93.008219
,,2024-12-11,220000,2,1.0,1368,6839,Saint Paul,2165 Fremont Ave E,55119,44.957892,-93.009248
2025-03-15,209900,2025-04-29,216500,3,1.0,1280,5053,Saint Paul,702 Rose Ave E,55106,44.976316,-93.070799
2024-10-03,240000,2025-02-12,247200,3,1.0,1500,5053,Saint Paul,2129 Reaney Ave E,55119,44.964217,-93.010764
2025-02-08,225000,2025-03-14,245000,3,1.0,1407,8276,Saint Paul,2095 Jessamine Ave E,55119,44.974526,-93.011739
2024-09-04,275000,2024-12-13,256000,3,1.0,1382,6229,Saint Paul,2234 3rd St E,55119,44.956446,-93.006513
2024-11-15,229900,2024-12-30,225000,3,1.0,1350,7492,Saint Paul,133 York Ave,55117,44.96842,-93.094979
2024-08-29,235000,2025-02-28,230000,2,1.0,865,5009,Saint Paul,654 Larpenteur Ave W,55113,44.991509,-93.127631
2024-12-03,130000,2025-01-09,113000,2,1.0,1160,2474,Saint Paul,912 Farrington St,55117,44.968716,-93.113266
2024-11-17,265000,2025-01-27,280000,4,2.0,1758,5271,Saint Paul,712 Parkway Dr,55106,44.988885,-93.071993
2024-11-19,220000,2025-01-08,221000,2,1.0,1560,7492,Saint Paul,2056 Magnolia Ave E,55119,44.972963,-93.013565
2025-01-22,298950,2025-02-28,310000,3,2.0,1736,5184,Saint Paul,344 Page St E,55107,44.924588,-93.070872
2025-01-14,325000,2025-02-19,335000,3,2.0,1400,6229,Saint Paul,222 Congress St W,55107,44.931972,-93.094911
2024-12-18,235000,2025-01-17,270000,4,1.0,1483,6142,Saint Paul,1098 Margaret St,55106,44.961008,-93.0541
2024-10-17,199900,2024-12-20,206000,3,1.0,1357,5881,Saint Paul,1609 7th St E,55106,44.966998,-93.032407
2024-10-31,389900,2024-12-10,389900,3,2.0,2005,5227,Saint Paul,1591 Huron St,55108,44.989143,-93.155659
2024-12-11,229900,2025-01-21,230000,2,1.0,1128,6360,Saint Paul,2067 Fremont Ave E,55119,44.95789,-93.013125
2025-01-30,324800,2025-03-10,340000,3,2.0,1565,5750,Saint Paul,567 Pelham Blvd,55104,44.957677,-93.200585
2025-03-07,315000,2025-04-18,330000,4,2.5,2336,5053,Saint Paul,277 Winifred St E,55107,44.930319,-93.072462
,,2025-02-04,325000,3,2.0,1008,16065,Saint Paul,1305 Maryland Ave E,55106,44.977789,-93.045128
2024-08-22,945000,2025-03-13,915000,6,3.5,4538,15594,Saint Paul,794 Linwood Ave,55105,44.934415,-93.133525
,,2025-02-13,139000,3,1.0,862,5097,Saint Paul,1299 Marion St,55117,44.980307,-93.110095
2025-03-19,350000,2025-05-09,420000,2,2.0,1478,22433,Saint Paul,604 Lexington Pkwy S,55116,44.923217,-93.14592
2025-01-17,250000,2025-03-21,250000,4,1.5,1885,4792,Saint Paul,1048 Conway St,55106,44.955605,-93.05628
2025-02-18,265000,2025-03-28,285000,3,1.5,1183,3659,Saint Paul,1415 Taylor Ave W,55104,44.967977,-93.160031
2025-01-14,500000,2025-02-20,550000,3,2.0,2047,6098,Saint Paul,1132 Montana Ave W,55108,44.987206,-93.147689
2024-12-24,309900,2025-04-29,305000,3,2.0,1934,7275,Saint Paul,1030 Larpenteur Ave W,55113,44.991636,-93.143661
,,2025-01-08,250000,3,1.0,900,6499,Saint Paul,1265 Folsom St,55117,44.979321,-93.133074
,,2025-05-06,497500,5,4.0,2810,15000,Saint Paul,2032 Oakridge St,55119,44.921609,-93.014514
2025-01-25,475000,2025-04-18,444000,5,3.0,2780,8538,Saint Paul,654 Orange Ave E,55106,44.979002,-93.07279
,,2025-04-29,267000,3,2.0,1504,6011,Saint Paul,986 Germain Ct,55106,44.971254,-93.032859
2024-10-21,619000,2025-02-26,590000,5,3.0,2601,4792,Saint Paul,1133 Palace Ave,55105,44.929007,-93.147987
2025-02-22,449900,2025-04-10,470000,3,2.0,1642,5968,Saint Paul,884 Ashland Ave,55104,44.943625,-93.137483
2025-02-20,244900,2025-04-15,245000,2,1.0,680,5227,Saint Paul,1830 Nebraska Ave E,55119,44.986274,-93.02308
2025-05-02,1950000,2025-05-02,1600000,3,2.5,2916,45564,Saint Paul,1630 Edgcumbe Rd,55116,44.914279,-93.151183
,,2025-04-29,264000,3,1.0,998,6055,Saint Paul,1691 4th St E,55106,44.958842,-93.029067
2024-09-20,309900,2024-12-23,273000,6,3.0,2374,7144,Saint Paul,234 Kennard St,55106,44.946925,-93.029886
2024-12-20,399900,2025-05-14,380000,3,1.0,1567,5097,Saint Paul,1847 Berkeley Ave,55105,44.933642,-93.178527
2025-01-09,285000,2025-02-27,290000,3,1.0,1251,6970,Saint Paul,2149 Fremont Ave E,55119,44.957893,-93.009827
2025-02-27,1070000,2025-04-18,1050000,4,3.5,3541,5924,Saint Paul,2230 Princeton Ave,55105,44.93586,-93.194864
2025-04-07,439900,2025-05-01,453000,4,2.0,2107,5053,Saint Paul,2011 James Ave,55105,44.928224,-93.185334
2025-02-28,330000,2025-04-04,339000,3,2.0,1524,7405,Saint Paul,688 Nebraska Ave E,55106,44.986252,-93.071553
2025-04-21,460000,2025-05-16,478000,4,3.0,2186,8930,Saint Paul,1464 Laurel Ave,55104,44.944706,-93.162114
2025-03-25,495000,2025-04-25,530000,3,2.0,1776,4922,Saint Paul,1415 Wellesley Ave,55105,44.931769,-93.160044
2025-03-05,335000,2025-04-28,345000,3,2.0,1310,14549,Saint Paul,640 Iowa Ave W,55117,44.98864,-93.127379
2025-01-09,299900,2025-02-11,333000,3,1.5,1637,5881,Saint Paul,999 Armstrong Ave,55102,44.925317,-93.14238
2025-03-13,250000,2025-05-15,265000,3,1.0,1226,4792,Saint Paul,1117 Jenks Ave,55106,44.971497,-93.053479
2025-03-21,159900,2025-04-28,165000,1,1.0,814,4966,Saint Paul,622 Wells St,55130,44.967273,-93.074369
2025-03-20,294900,2025-05-05,302000,3,2.0,1850,5140,Saint Paul,1985 4th St E,55119,44.958815,-93.016573
2024-10-21,359000,2025-01-24,340000,5,2.0,2240,6534,Saint Paul,1233 Prosperity Ave,55106,44.978727,-93.040014
2025-02-13,750000,2025-03-24,765000,3,1.5,2670,6011,Saint Paul,2294 Saint Clair Ave,55105,44.934048,-93.197256
2025-02-06,259900,2025-04-25,270000,3,1.5,1200,4487,Saint Paul,1133 Jackson St,55117,44.975118,-93.09673
2024-11-04,185000,2024-12-19,182000,2,1.0,682,1699,Saint Paul,559 Elfelt St,55103,44.958092,-93.112234
2024-11-19,240000,2024-12-30,227450,2,1.0,858,4792,Saint Paul,1528 Canfield Ave,55108,44.979791,-93.164897
2025-01-27,265000,2025-03-12,301000,2,1.0,732,6752,Saint Paul,815 Iowa Ave W,55117,44.989337,-93.13419
2025-03-04,297000,2025-04-10,309000,3,2.0,1418,4966,Saint Paul,781 Howell St N,55104,44.964694,-93.181411
2024-11-04,279900,2025-02-12,299000,3,1.0,1262,4617,Saint Paul,805 Cherokee Ave,55107,44.921886,-93.104983
2024-12-09,210000,2025-04-30,209000,2,1.0,1060,5053,Saint Paul,1690 Bush Ave,55106,44.964673,-93.029134
2025-03-26,215000,2025-05-08,250000,4,2.0,1914,4487,Saint Paul,935 Jenks Ave,55106,44.971484,-93.06122
2025-04-26,150000,2025-05-23,150000,3,1.0,1415,5271,Saint Paul,1005 Galtier St,55117,44.971651,-93.11143
2025-04-23,250000,2025-05-27,270000,3,1.0,1067,5009,Saint Paul,1259 Hubbard Ave,55104,44.965922,-93.153301
2025-03-29,274900,2025-05-23,291278,4,2.0,1948,5445,Saint Paul,1278 Woodbridge St,55117,44.979692,-93.108102
2025-04-18,289900,2025-05-12,296000,3,1.0,1400,6665,Saint Paul,1531 Alameda St,55117,44.987229,-93.130339
2025-04-28,300000,2025-06-05,320000,3,2.0,1680,6098,Saint Paul,1055 Wakefield Ave,55106,44.953441,-93.055942
2025-05-07,455000,2025-06-06,458690,3,2.5,1820,6621,Saint Paul,1599 Griggs St N,55108,44.989515,-93.150508
2025-04-22,450000,2025-05-14,465000,4,2.0,1878,4966,Saint Paul,1426 Scheffer Ave,55116,44.92128,-93.160505
2025-03-28,374900,2025-05-13,385000,3,1.5,1800,9714,Saint Paul,42 Darlene St,55119,44.942275,-93.018525
2025-03-14,998500,2025-05-15,1052000,4,2.5,4201,12632,Saint Paul,832 Osceola Ave,55105,44.935321,-93.135161
2025-04-10,350000,2025-05-02,359000,3,1.5,1168,4574,Saint Paul,807 Delaware Ave,55107,44.921768,-93.106186
,,2025-03-31,210000,3,2.0,1362,9540,Saint Paul,1337 Ross Ave,55106,44.966115,-93.044351
2025-05-27,310000,2025-05-27,310000,1,2.5,1153,4922,Saint Paul,1285 Juno Ave,55116,44.926303,-93.154627
2025-02-25,524999,2025-03-14,586000,3,1.5,1658,5009,Saint Paul,2152 Berkeley Ave,55105,44.933157,-93.191356
2025-04-18,299900,2025-06-02,320000,3,1.0,1418,4748,Saint Paul,719 Fuller Ave,55104,44.954183,-93.130454
2025-04-26,310000,2025-05-30,330000,3,2.0,1959,6098,Saint Paul,2184 6th St E,55119,44.960092,-93.008739
2025-04-12,369900,2025-06-04,375000,3,1.0,1504,5184,Saint Paul,235 Vernon St,55105,44.934519,-93.171435
2025-04-09,199900,2025-05-22,209500,1,1.0,823,4966,Saint Paul,408 Erie St,55102,44.929059,-93.121644
2025-03-31,265000,2025-05-22,270000,2,1.0,919,5227,Saint Paul,985 Seminary Ave,55104,44.965051,-93.141891
,,2025-05-27,500000,4,1.5,1567,6251,Saint Paul,1853 Jefferson Ave,55105,44.930918,-93.178612
2024-10-02,199000,2024-12-19,206000,3,1.0,1215,8015,Saint Paul,1159 Seminary Ave,55104,44.965062,-93.148929
2025-04-04,199900,2025-05-19,210000,3,1.0,1166,5009,Saint Paul,1271 Marion St,55117,44.979539,-93.110102
2025-02-12,240000,2025-05-16,245500,3,2.0,1216,4966,Saint Paul,873 Ohio St,55107,44.919994,-93.097914
2025-04-21,225000,2025-05-29,228500,3,1.0,1651,6273,Saint Paul,1680 Westminster St,55130,44.991658,-93.085934
2025-04-08,525000,2025-05-15,525000,4,1.5,2574,5968,Saint Paul,1688 Laurel Ave,55104,44.944729,-93.171684
2025-04-28,725000,2025-05-30,800000,4,1.5,2400,7362,Saint Paul,1281 Como Blvd W,55103,44.979093,-93.143988
2025-04-22,210000,2025-05-23,215000,3,2.0,420,4966,Saint Paul,768 Magnolia Ave E,55106,44.973629,-93.068103
2025-03-06,150000,2025-03-26,175000,3,1.0,1092,4879,Saint Paul,109 Geranium Ave W,55117,44.975841,-93.104698
2025-04-24,350000,2025-06-02,400000,3,2.0,1848,5271,Saint Paul,1511 Osceola Ave,55105,44.936357,-93.163962
2025-04-01,343000,2025-05-30,348000,4,1.5,1408,4792,Saint Paul,709 Stewart Ave,55102,44.922505,-93.129663
2025-03-04,1050000,2025-05-30,1050000,5,3.0,3400,6752,Saint Paul,2238 Riverwood Pl,55104,44.944456,-93.194709
2025-04-12,539900,2025-05-29,570006,5,2.0,2200,5053,Saint Paul,436 Saratoga St S,55105,44.928351,-93.164117
2025-04-07,359900,2025-05-30,377000,2,2.0,1814,7492,Saint Paul,594 Clifford St,55104,44.958493,-93.203586
2025-03-13,265000,2025-05-30,256000,3,1.5,1212,9801,Saint Paul,1797 Hyacinth Ave E,55119,44.980473,-93.024451
2024-10-04,199900,2024-12-30,200000,3,1.5,1500,6708,Saint Paul,764 Edmund Ave,55104,44.958175,-93.13248
2025-03-10,599900,2025-04-14,570000,7,3.0,4195,16553,Saint Paul,2376 Bayless Pl,55114,44.968265,-93.201
2025-04-18,314900,2025-05-21,331000,3,2.5,2064,4617,Saint Paul,577 Michigan St,55102,44.93528,-93.123992
2025-04-15,650000,2025-05-30,715000,3,2.5,2245,6403,Saint Paul,2188 Wellesley Ave,55105,44.931343,-93.192922
2024-11-08,265000,2025-01-03,270000,3,1.5,1277,4530,Saint Paul,453 Maryland Ave E,55130,44.977626,-93.081493
2025-05-01,299900,2025-06-02,331000,3,1.5,1591,16771,Saint Paul,445 Totem Rd,55119,44.928926,-93.01714
2024-09-18,190000,2024-12-11,183000,2,1.0,708,5009,Saint Paul,1992 Clear Ave E,55119,44.981769,-93.016256
2025-04-18,405900,2025-05-27,426000,4,2.0,2200,6273,Saint Paul,84 Hatch Ave W,55117,44.970886,-93.103553
2025-03-11,550000,2025-04-15,600000,4,2.5,2150,7579,Saint Paul,1684 Watson Ave,55116,44.924027,-93.171344
2025-02-28,324900,2025-05-29,324900,2,2.0,1399,5837,Saint Paul,1952 Field Ave,55116,44.902205,-93.182741
2025-04-03,590000,2025-05-15,605000,4,2.5,2397,7492,Saint Paul,1914 Selby Ave,55104,44.945891,-93.18135
2025-02-13,599900,2025-03-17,616500,4,2.5,2504,5968,Saint Paul,1168 Laurel Ave,55104,44.944722,-93.149593
2024-11-19,269500,2025-01-23,255500,3,2.0,1772,6708,Saint Paul,1138 Flandrau St,55106,44.975642,-93.027463
2025-04-02,599000,2025-05-22,599000,4,1.5,2136,9583,Saint Paul,1833 Goodrich Ave,55105,44.938147,-93.177828
2025-01-22,389900,2025-02-21,375000,2,1.5,1048,7449,Saint Paul,1802 Lincoln Ave,55105,44.938815,-93.176476
2025-05-02,1300000,2025-05-30,1300000,5,3.5,5506,7144,Saint Paul,463 Ashland Ave,55102,44.944695,-93.11967
2025-05-08,475000,2025-06-03,515968,3,3.0,2100,39727,Saint Paul,968 Larpenteur Ave W,55113,44.991446,-93.141457
2025-01-13,309999,2025-02-20,335000,3,2.0,1680,9278,Saint Paul,1668 Clear Ave,55106,44.981782,-93.029915
2024-10-16,237000,2025-02-14,237000,3,2.0,1200,4792,Saint Paul,984 Cook Ave E,55106,44.972759,-93.058994
2025-03-06,214900,2025-04-14,230000,2,2.0,763,6098,Saint Paul,2072 Case Ave E,55119,44.970036,-93.013181
2024-11-14,165000,2024-12-18,180000,3,1.0,997,4922,Saint Paul,1378 Lafond Ave,55104,44.95996,-93.158406
2025-04-15,279000,2025-05-30,290000,3,1.0,1737,5009,Saint Paul,1838 Arlington Ave E,55119,44.98446,-93.022625
2025-04-22,249900,2025-06-06,295000,3,1.5,1521,6098,Saint Paul,1644 Nevada Ave E,55106,44.985395,-93.031138
2024-10-03,285000,2024-12-31,280000,3,1.0,1418,10019,Saint Paul,663 Idaho Ave E,55106,44.990375,-93.072565
2025-04-16,219900,2025-05-30,224000,3,1.0,1152,8538,Saint Paul,1453 7th St E,55106,44.967,-93.039031
2025-02-15,445000,2025-04-03,480022,4,3.0,2112,4792,Saint Paul,855 Tuscarora Ave,55102,44.92353,-93.136083
2025-04-10,299900,2025-06-06,310000,4,2.0,1667,6534,Saint Paul,1078 Kingsford St,55106,44.97384,-93.028731
2025-05-08,359900,2025-06-06,345000,2,2.0,1428,9540,Saint Paul,1339 Maywood St,55117,44.98154,-93.127919
2025-04-28,575000,2025-05-29,610000,3,2.0,1849,4966,Saint Paul,880 Osceola Ave,55105,44.935446,-93.137367
2025-05-01,420000,2025-05-27,442750,3,2.5,1814,7492,Saint Paul,1381 Nebraska Ave W,55108,44.986696,-93.158433
2025-04-24,314900,2025-05-27,325000,3,1.5,918,4966,Saint Paul,882 Bayard Ave,55102,44.922127,-93.137404
2024-11-25,375000,2025-01-03,365000,3,2.5,1435,5227,Saint Paul,1659 Fernwood St,55108,44.991212,-93.151727
2025-02-18,825000,2025-03-31,825000,6,3.5,3113,6403,Saint Paul,496 Marshall Ave,55102,44.948277,-93.121098
2024-12-02,509900,2025-01-15,510000,4,2.5,2205,7797,Saint Paul,2029 Morgan Ave,55116,44.9047,-93.185762
2024-08-01,230000,2025-02-03,230000,3,2.0,1754,5358,Saint Paul,287 Cecelia Pl,55105,44.932801,-93.155942
2025-03-17,489900,2025-05-12,472500,3,1.5,1796,5793,Saint Paul,537 Cretin Ave S,55116,44.92536,-93.19282
,,2025-02-25,420000,3,2.0,1652,5271,Saint Paul,1767 Ford Pkwy,55116,44.918224,-93.174924
2025-03-16,279900,2025-03-17,265000,5,2.0,2174,7971,Saint Paul,946 Flandrau St,55106,44.969821,-93.027407
2024-11-27,249900,2025-02-28,249900,3,2.0,1075,6186,Saint Paul,1733 Montana Ave E,55106,44.987688,-93.027049
2024-11-22,245000,2024-12-27,258000,3,1.0,1813,8407,Saint Paul,553 Hoyt Ave E,55130,44.988534,-93.077416
2024-11-27,280000,2024-12-30,280000,3,2.0,1872,6098,Saint Paul,930 Hawthorne Ave E,55106,44.978169,-93.061282
2024-10-17,299900,2024-12-31,295000,3,2.0,1176,4792,Saint Paul,1764 Dayton Ave,55104,44.947189,-93.175068
,,2025-02-05,332000,3,1.0,1496,4961,Saint Paul,722 Lafond Ave,55104,44.95999,-93.130645
2025-02-11,595000,2025-02-27,651000,5,2.5,2700,5793,Saint Paul,495 Cretin Ave S,55116,44.926595,-93.192821
2025-02-20,349900,2025-04-04,350000,3,1.0,1386,6970,Saint Paul,1131 Norbert Ln,55116,44.907666,-93.182033
,,2025-04-17,159900,3,1.5,1047,5001,Saint Paul,782 Cook Ave E,55106,44.972737,-93.067406
2024-11-15,465000,2024-12-20,465000,4,2.5,2284,9191,Saint Paul,117 Elizabeth St W,55107,44.927367,-93.090412
2025-02-14,679000,2025-04-15,692580,4,4.0,3556,4792,Saint Paul,397 Ashland Ave,55102,44.944575,-93.116781
,,2025-01-27,176415,3,2.0,1381,5227,Saint Paul,1934 Stillwater Ave E,55119,44.968031,-93.01857
2024-10-26,325000,2025-01-31,325000,3,2.0,1538,5489,Saint Paul,403 Arlington Ave W,55117,44.984844,-93.116941
2025-01-29,350000,2025-03-04,385900,2,1.5,1611,7536,Saint Paul,1677 Montreal Ave,55116,44.912802,-93.170963
2025-01-31,355000,2025-03-31,363000,2,2.0,2050,18644,Saint Paul,2184 Bonnie Ln,55119,44.90463,-93.007994
2025-03-19,345000,2025-04-15,380000,3,1.0,1032,5619,Saint Paul,1431 Scheffer Ave,55116,44.921791,-93.160707
2024-09-27,349900,2024-12-17,343000,3,2.5,2326,9017,Saint Paul,1836 Woodcrest Dr,55119,44.94536,-93.0228
2025-03-17,875000,2025-05-12,875000,3,3.5,3460,11979,Saint Paul,1456 Edgcumbe Rd,55116,44.92095,-93.149643
2025-04-07,325000,2025-05-29,349000,3,2.0,1050,6351,Saint Paul,1630 Fernwood St,55108,44.99046,-93.151012
2024-10-04,199900,2025-01-10,182000,4,1.0,1588,2526,Saint Paul,547 Western Ave N,55103,44.957871,-93.11641
2024-10-30,237500,2025-01-10,237500,3,1.0,1230,4748,Saint Paul,1225 Arkwright St,55130,44.978018,-93.083994
2025-03-19,299900,2025-04-30,300000,4,2.0,1644,4879,Saint Paul,1787 Orange Ave E,55119,44.979572,-93.024769
2024-10-24,775000,2025-01-03,730000,4,3.5,4482,8930,Saint Paul,2127 Iglehart Ave,55104,44.949976,-93.190302
2025-02-21,239900,2025-04-16,233000,4,1.5,1700,8015,Saint Paul,889 Westminster St,55130,44.967875,-93.085853
2024-11-11,479900,2024-12-30,480000,3,2.0,1600,6490,Saint Paul,631 Fairview Ave S,55116,44.922547,-93.177619
2025-03-31,250000,2025-05-05,301000,2,1.0,960,4966,Saint Paul,1151 Van Buren Ave,55104,44.962341,-93.148771
2025-04-04,199000,2025-05-09,190000,4,2.0,1841,5009,Saint Paul,40 Magnolia Ave W,55117,44.973551,-93.101859
2025-02-28,260000,2025-04-18,283000,2,2.0,1404,4835,Saint Paul,939 Central Ave W,55104,44.953297,-93.139819
2024-11-22,234500,2024-12-20,242000,3,2.0,1298,5227,Saint Paul,1993 4th St E,55119,44.958814,-93.016263
2025-04-29,397500,2025-05-13,430000,3,1.0,1419,6447,Saint Paul,1026 Saint Paul Ave,55116,44.910957,-93.183199
2024-07-18,775000,2025-05-05,750000,6,2.5,4800,8668,Saint Paul,1830 Dayton Ave,55104,44.946944,-93.177643
2024-11-05,365000,2024-12-13,360000,3,2.0,1644,7928,Saint Paul,974 Burns Ave,55106,44.948468,-93.059417
,,2025-05-09,275000,3,1.0,924,4678,Saint Paul,1412 McKinley St,55108,44.983715,-93.160154
2025-02-19,265000,2025-05-08,265000,3,1.0,1572,4922,Saint Paul,1539 Cumberland St,55117,44.987508,-93.117644
2025-02-11,311300,2025-03-13,311300,3,1.0,1133,4792,Saint Paul,1765 Van Buren Ave,55104,44.962231,-93.175016
2024-12-10,215000,2025-02-27,195000,2,1.0,1128,4356,Saint Paul,1260 7th St E,55106,44.966463,-93.047286
2024-10-29,325000,2024-12-23,325000,3,2.0,1838,8407,Saint Paul,2030 Larpenteur Ave E,55109,44.991696,-93.014576
2025-03-28,549900,2025-04-22,610000,4,3.5,2662,5053,Saint Paul,935 Palace Ave,55102,44.928951,-93.139643
2024-12-03,295000,2025-04-04,280000,4,2.0,1241,4792,Saint Paul,1385 White Bear Ave N,55106,44.983194,-93.025595
2024-10-03,334900,2024-12-18,335000,3,2.0,1613,10625,Saint Paul,625 Lexington Pkwy S,55116,44.922507,-93.147028
2025-02-26,365000,2025-04-03,365000,3,2.0,1744,8494,Saint Paul,18 Ruth St N,55119,44.941615,-93.014618
2024-11-12,295000,2024-12-16,292500,3,2.0,1648,6839,Saint Paul,402 Montana Ave E,55130,44.98704,-93.083524
2025-02-07,434900,2025-02-28,434900,5,3.0,2274,5968,Saint Paul,1462 Como Ave,55108,44.977045,-93.162115
2024-10-09,199900,2025-01-06,199900,1,1.0,684,7492,Saint Paul,144 Stevens St W,55107,44.92829,-93.091687
2025-04-17,400000,2025-05-07,453000,3,2.0,1854,7500,Saint Paul,1340 Keston St,55108,44.981341,-93.197959
2025-04-01,450000,2025-05-07,460000,3,1.5,1450,4966,Saint Paul,175 Exeter Pl,55104,44.946349,-93.194761
,,2025-05-13,175000,3,1.0,1046,7802,Saint Paul,1127 Kennard St,55106,44.975375,-93.030754
2024-12-26,299900,2025-03-10,310000,4,2.0,1608,7536,Saint Paul,280 Hatch Ave,55117,44.970925,-93.111994
2025-04-01,389000,2025-05-23,350000,3,3.0,2088,5184,Saint Paul,2159 Dayton Ave,55104,44.947524,-93.191473
2025-04-04,199900,2025-06-03,205000,2,1.0,1129,5445,Saint Paul,917 Thomas Ave,55104,44.959558,-93.138778
2025-04-25,499500,2025-06-03,537500,3,2.0,1937,4792,Saint Paul,2174 Eleanor Ave,55116,44.920441,-93.19213
2025-04-30,375000,2025-06-04,387000,3,2.0,1509,5053,Saint Paul,635 Warwick St,55116,44.922302,-93.16357
2025-04-16,750000,2025-06-04,750000,4,3.0,2220,8494,Saint Paul,2184 Carter Ave,55108,44.981109,-93.192475
2025-04-11,345000,2025-05-16,350000,4,2.0,1857,9361,Saint Paul,18 Michael St,55119,44.941577,-93.005935
2024-11-14,265000,2024-12-16,265000,3,1.0,1484,4922,Saint Paul,303 Stinson St,55117,44.969557,-93.112846
2024-12-05,419900,2024-12-30,410000,4,2.0,2286,7492,Saint Paul,1873 Iglehart Ave,55104,44.949756,-93.179544
2025-03-11,329900,2025-04-24,320000,2,1.0,1544,4966,Saint Paul,1275 Watson Ave,55116,44.924494,-93.153935
2025-02-24,400000,2025-04-15,410000,3,1.5,1681,4400,Saint Paul,424 Daly St,55102,44.928544,-93.126707
2025-02-07,289000,2025-03-21,321000,2,2.0,996,7318,Saint Paul,1367 Saint Albans St N,55117,44.982293,-93.129145
2025-04-07,239900,2025-05-01,255000,3,2.0,1133,8146,Saint Paul,1697 Minnehaha Ave E,55106,44.963363,-93.02887
2025-02-24,450000,2025-04-29,520000,3,2.0,1558,5009,Saint Paul,1516 Arona St,55108,44.98683,-93.163958
2025-02-22,275000,2025-04-15,305000,2,2.0,1214,4922,Saint Paul,1255 Charles Ave,55104,44.957796,-93.153158
2025-01-09,299000,2025-03-10,295000,4,2.0,1756,7318,Saint Paul,150 Bates Ave,55106,44.950938,-93.063775
2025-03-17,350000,2025-04-30,350000,5,2.0,2075,13765,Saint Paul,449 Aurora Ave,55103,44.955134,-93.119013
2024-11-08,209900,2025-03-07,205000,2,2.0,1516,4661,Saint Paul,1074 Euclid St,55106,44.954715,-93.055136
2025-03-27,260000,2025-05-02,267000,3,2.0,1390,4051,Saint Paul,112 Sycamore St E,55117,44.964706,-93.095777
2025-04-30,265000,2025-05-30,280000,2,2.0,1473,6011,Saint Paul,1777 Sheridan Ave,55116,44.901922,-93.17563
2024-11-14,131000,2025-02-25,131000,2,1.0,1000,7187,Saint Paul,886 Johnson Pkwy,55106,44.968041,-93.044617
2025-01-22,220000,2025-02-27,288000,3,2.0,1534,7405,Saint Paul,1694 Sherwood Ave,55106,44.983577,-93.028949
2025-04-29,415000,2025-05-16,480000,2,1.0,1152,4879,Saint Paul,2151 Fairmount Ave,55105,44.937274,-93.191281
2024-07-31,259900,2024-12-13,247000,3,2.0,1509,5227,Saint Paul,983 Minnehaha Ave W,55104,44.963257,-93.141744
2024-06-25,799900,2024-12-13,770000,5,3.5,3090,5227,Saint Paul,1965 Rome Ave,55116,44.913675,-93.183394
2024-11-18,314500,2024-12-13,310000,3,1.5,1218,11326,Saint Paul,112 Geranium Ave E,55117,44.975367,-93.095675
2025-04-22,274900,2025-05-20,285000,3,1.0,1482,3345,Saint Paul,418 Baker St W,55107,44.92642,-93.102938
2024-07-05,320000,2025-02-26,322000,4,2.0,1768,7405,Saint Paul,1036 Burgess St,55103,44.968147,-93.143827
2025-04-15,500000,2025-06-02,515000,3,3.0,1625,5968,Saint Paul,1888 Grand Ave,55105,44.939783,-93.180276
2024-10-31,242000,2024-12-09,240000,3,1.0,1591,5702,Saint Paul,1267 Galtier St,55117,44.979456,-93.111388
2025-01-22,735000,2025-02-27,735000,4,3.0,2481,5009,Saint Paul,1896 Wellesley Ave,55105,44.931324,-93.180365
2025-03-04,625000,2025-04-25,675000,3,2.5,2348,7492,Saint Paul,1783 Eleanor Ave,55116,44.920925,-93.175707
2025-05-22,315000,2025-06-03,315000,2,1.0,1142,5401,Saint Paul,71 Cleveland Ave S,55105,44.939395,-93.187773
2025-01-10,299900,2025-01-31,305000,3,1.5,1622,4918,Saint Paul,1176 Duluth St,55106,44.976777,-93.050385
,,2025-05-29,462500,4,2.5,1526,8908,Saint Paul,827 Hoyt Ave W,55117,44.988503,-93.134633
2025-04-07,314900,2025-05-05,335000,4,2.0,1932,6011,Saint Paul,245 Annapolis St E,55118,44.919819,-93.075278
2025-04-09,214900,2025-05-22,217000,3,1.5,1280,4792,Saint Paul,298 Cottage Ave W,55117,44.982551,-93.112593
2025-04-06,400000,2025-05-21,410000,3,2.0,1980,5227,Saint Paul,168 Isabel St W,55107,44.932835,-93.092684
2025-03-27,290000,2025-05-02,295000,4,2.0,1572,7667,Saint Paul,46 King St W,55107,44.927695,-93.087194
2025-05-06,375000,2025-05-27,428500,2,2.0,1764,6970,Saint Paul,2375 Buford Ave,55108,44.984754,-93.200407
2025-04-09,224900,2025-06-06,236000,2,1.0,1106,7362,Saint Paul,43 Rose Ave E,55117,44.976733,-93.09938
2025-02-21,1000000,2025-05-22,985000,7,2.5,4185,10890,Saint Paul,1726 Summit Ave,55105,44.941002,-93.173694
2025-05-16,689900,2025-06-06,690000,5,2.5,2787,5184,Saint Paul,963 Linwood Ave,55105,44.935148,-93.140696
2024-09-07,1999000,2025-05-01,1990000,8,7.5,9188,84071,Saint Paul,6 Crocus Hl,55102,44.938027,-93.122181
2025-02-13,250000,2025-03-26,272803,3,1.5,1093,4792,Saint Paul,838 Orange Ave E,55106,44.979069,-93.06516
,,2025-04-01,200000,3,1.0,979,6599,Saint Paul,338 Blair Ave,55103,44.961184,-93.114177
2024-08-27,274900,2024-12-18,290000,2,2.0,1502,6839,Saint Paul,2082 3rd St E,55119,44.956465,-93.012398
,,2025-05-06,120000,2,1.0,768,5079,Saint Paul,2055 Minnehaha Ave E,55119,44.963318,-93.013598
2025-02-14,429000,2025-03-26,445000,3,2.0,1614,5097,Saint Paul,1605 Wellesley Ave,55105,44.93179,-93.168088
2025-02-11,575000,2025-04-01,585000,5,2.0,2308,5968,Saint Paul,1336 Lincoln Ave,55105,44.938667,-93.156634
,,2025-02-18,360000,5,2.0,1654,5040,Saint Paul,1394 Snelling Ave N,55108,44.983194,-93.166574
2024-11-15,225000,2024-12-17,225000,3,2.0,1301,4966,Saint Paul,971 Cook Ave E,55106,44.973252,-93.059453
,,2025-03-04,190000,2,1.0,1040,8276,Saint Paul,1503 McLean Ave,55106,44.950713,-93.036659
2024-11-15,300000,2025-01-08,300000,3,1.5,1530,6273,Saint Paul,271 Robie St E,55107,44.929593,-93.073318
2025-03-05,350000,2025-04-04,357000,4,2.0,2100,4008,Saint Paul,894 Selby Ave,55104,44.946357,-93.137802
2024-10-08,399900,2024-12-13,413000,3,2.0,2042,4225,Saint Paul,951 Laurel Ave,55104,44.945226,-93.140358
2024-11-13,300000,2024-12-18,325000,4,2.0,1592,5532,Saint Paul,1306 Dale St N,55117,44.980345,-93.126014
,,2025-03-05,365000,4,1.5,1423,9148,Saint Paul,668 Maryland Ave W,55117,44.977039,-93.128288
2025-03-28,250000,2025-03-31,255000,3,1.0,1334,6229,Saint Paul,79 King St E,55107,44.928274,-93.081758
2024-11-01,520000,2025-04-04,465000,3,2.0,1900,4922,Saint Paul,2152 Saint Clair Ave,55105,44.93406,-93.191355
,,2025-04-24,295000,3,2.0,1212,5001,Saint Paul,1458 Juliet Ave,55105,44.929444,-93.16174
2025-03-28,229900,2025-04-23,245000,3,2.0,1564,8233,Saint Paul,1101 Western Ave N,55117,44.974439,-93.11654
,,2025-04-17,249900,3,1.0,1071,5210,Saint Paul,1738 Sherwood Ave,55106,44.98357,-93.026937
,,2025-04-03,100000,2,1.0,1127,4609,Saint Paul,1083 6th St E,55106,44.96061,-93.054894
2025-02-08,329900,2025-04-15,327500,3,1.0,1234,6490,Saint Paul,1209 Saint Paul Ave,55116,44.905628,-93.179799
2025-03-17,259000,2025-04-11,273000,3,2.0,1138,4835,Saint Paul,756 Geranium Ave E,55106,44.975435,-93.068561
2025-02-20,315000,2025-04-03,320000,3,1.0,1052,5227,Saint Paul,660 Jefferson Ave,55102,44.930285,-93.127601
,,2025-01-31,545000,3,1.5,1643,5672,Saint Paul,2162 Berkeley Ave,55105,44.933157,-93.191674
,,2025-01-08,361000,3,1.0,1264,5001,Saint Paul,1147 Palace Ave,55105,44.929008,-93.148448
2024-10-25,399900,2024-12-09,424500,3,1.5,1617,5576,Saint Paul,1473 Osceola Ave,55105,44.936344,-93.162514
,,2025-01-17,475000,4,3.5,2712,16117,Saint Paul,1573 Burg Ave,55119,44.894116,-93.006122
2024-12-13,314900,2025-03-31,304000,3,2.0,1406,5227,Saint Paul,217 Congress St W,55107,44.932444,-93.094916
2024-06-06,275000,2025-02-27,275000,2,1.0,1266,5009,Saint Paul,1127 Van Buren Ave,55104,44.962348,-93.147849
,,2024-12-10,339900,6,3.5,2632,4961,Saint Paul,516 Thomas Ave,55103,44.959092,-93.121917
2024-12-20,295000,2025-03-03,295000,4,2.0,1817,4792,Saint Paul,733 Cook Ave E,55106,44.973219,-93.069728
2025-04-01,315000,2025-04-25,350000,2,1.0,832,4879,Saint Paul,1973 Randolph Ave,55105,44.92733,-93.18371
2024-11-16,199000,2025-01-10,199000,1,1.0,666,4879,Saint Paul,1663 Ross Ave,55106,44.966086,-93.030055
2025-01-29,248900,2025-03-14,256550,3,2.0,980,4835,Saint Paul,808 Hyacinth Ave E,55106,44.979966,-93.066493
2025-02-21,189900,2025-03-27,217000,2,1.0,1080,5140,Saint Paul,1387 Minnehaha Ave E,55106,44.96337,-93.042074
2025-02-18,96000,2025-03-21,96000,2,1.0,648,3128,Saint Paul,859 Marion St,55117,44.967151,-93.110108
,,2025-03-26,335000,3,1.0,1120,5719,Saint Paul,1165 Cleveland Ave S,55116,44.906251,-93.187815
2025-01-06,265000,2025-02-21,265000,3,1.0,974,4835,Saint Paul,860 Hawthorne Ave E,55106,44.978167,-93.064232
2024-12-04,250000,2025-01-29,250000,2,2.0,1045,7492,Saint Paul,809 Englewood Ave,55104,44.964147,-93.134441
2024-10-15,349000,2024-12-20,340000,5,2.0,1946,7275,Saint Paul,921 Orange Ave E,55106,44.979584,-93.061591
2024-12-02,139900,2024-12-31,140000,3,1.0,1280,4966,Saint Paul,649 Lafond Ave,55104,44.960506,-93.127661
2024-10-11,299000,2025-03-14,295000,3,1.5,2128,7536,Saint Paul,859 Ivy Ave E,55106,44.981398,-93.064371
2025-03-17,624900,2025-04-23,600000,4,3.0,2658,23000,Saint Paul,1518 Burg Ave,55119,44.896015,-93.006469
2025-03-18,800000,2025-04-25,800000,3,1.5,2240,8146,Saint Paul,38 Otis Ave,55104,44.944087,-93.194606
,,2025-01-27,465000,3,1.5,1692,5001,Saint Paul,1706 Scheffer Ave,55116,44.921312,-93.172535
,,2025-04-02,370000,3,1.0,1498,4761,Saint Paul,184 Syndicate St N,55104,44.946837,-93.153964
2024-09-19,324500,2025-01-03,325000,5,2.0,1870,5968,Saint Paul,1508 Western Ave N,55117,44.986745,-93.115662
,,2025-01-17,300000,3,2.0,1558,6482,Saint Paul,638 Marshall Ave,55104,44.948216,-93.127114
2025-02-21,450000,2025-05-02,515000,4,2.0,1880,6360,Saint Paul,1062 Colby St,55116,44.909369,-93.190385
2024-12-19,194900,2025-01-03,180000,4,2.0,1848,7405,Saint Paul,761 Robert St S,55107,44.923039,-93.08115
,,2025-01-30,165000,5,2.0,1407,4522,Saint Paul,1135 Jackson St,55117,44.975255,-93.096731
,,2024-12-09,140000,2,1.0,1078,4008,Saint Paul,1725 York Ave,55106,44.968989,-93.02749
2024-12-19,245000,2025-01-17,245000,3,1.0,864,4792,Saint Paul,848 Fuller Ave,55104,44.953685,-93.135962
2025-02-04,400000,2025-03-25,392100,2,1.0,1765,8146,Saint Paul,1717 Yorkshire Ave,55116,44.911868,-93.172846
2025-03-12,260000,2025-04-24,260000,5,2.0,1912,4617,Saint Paul,530 Kent St,55103,44.957207,-93.123528
2024-10-10,210000,2025-03-28,209000,4,1.0,1166,5053,Saint Paul,1188 Ross Ave,55106,44.965557,-93.05023
2025-01-28,675000,2025-04-30,675000,5,2.5,2140,5968,Saint Paul,1016 Goodrich Ave,55105,44.937551,-93.142997
2025-03-05,195000,2025-03-31,220000,2,1.0,925,4879,Saint Paul,1560 Beech St,55106,44.961966,-93.034536
2024-11-13,350000,2024-12-13,350000,3,2.0,2118,7971,Saint Paul,1344 Saint Albans St N,55117,44.981592,-93.128432
2024-12-19,449999,2025-01-31,440000,3,1.5,2040,6273,Saint Paul,1845 Ford Pkwy,55116,44.918233,-93.17837
2024-10-01,260000,2025-01-31,252000,2,2.0,1651,8233,Saint Paul,2146 Ames Ave,55119,44.971975,-93.010466
,,2025-02-19,230000,3,2.0,1200,5001,Saint Paul,948 Lawson Ave E,55106,44.971865,-93.06039
2024-09-30,264500,2025-01-17,260400,3,2.0,1283,11761,Saint Paul,1520 Upper Afton Rd,55106,44.947304,-93.036048
2024-10-10,525000,2024-12-11,541000,3,2.0,2108,7405,Saint Paul,1616 Pinehurst Ave,55116,44.918585,-93.168607
,,2025-01-30,185000,4,1.5,1812,3703,Saint Paul,913 Hudson Rd,55106,44.95253,-93.061942
,,2025-02-03,265000,2,2.0,809,4879,Saint Paul,1108 Thomas Ave,55104,44.959094,-93.147304
2025-01-10,369900,2025-02-18,375000,3,1.0,1060,4138,Saint Paul,1122 Edgcumbe Rd,55105,44.930251,-93.147608
2024-11-13,699900,2025-01-15,685000,5,4.0,2762,4879,Saint Paul,2150 James Ave,55105,44.927712,-93.191201
2024-11-21,310000,2025-02-20,310000,3,2.0,1922,7449,Saint Paul,1632 Wilson Ave,55106,44.953844,-93.031515
2024-12-19,324900,2025-02-28,365000,4,2.0,1900,5968,Saint Paul,1065 Ashland Ave,55104,44.944241,-93.145117
,,2025-04-25,260000,2,1.0,1166,5968,Saint Paul,304 Webster St,55102,44.932088,-93.124062
2025-02-18,239900,2025-03-19,251000,3,1.0,979,9365,Saint Paul,93 Winona St E,55107,44.921648,-93.0813
,,2025-01-22,227000,3,1.5,1400,4918,Saint Paul,246 Sidney St E,55107,44.923717,-93.07541
2024-10-03,274900,2024-12-11,265000,2,1.5,1440,6625,Saint Paul,2036 Case Ave E,55119,44.970036,-93.014519
2024-12-23,249900,2025-01-17,244000,4,2.0,1372,5053,Saint Paul,1726 4th St E,55106,44.958326,-93.0275
2025-02-14,309900,2025-04-11,295000,3,2.0,1572,6578,Saint Paul,1754 6th St E,55106,44.960128,-93.026345
2025-02-17,400000,2025-03-14,455000,3,1.5,1344,5053,Saint Paul,2178 Palace Ave,55105,44.928609,-93.19228
2024-12-18,289900,2025-01-21,289900,3,1.0,1337,6273,Saint Paul,1701 Fremont Ave,55106,44.957928,-93.028628
,,2025-03-10,170000,2,1.0,580,2500,Saint Paul,348 Wyoming St W,55107,44.920525,-93.100005
2025-01-10,350000,2025-02-10,350000,4,3.0,2386,4960,Saint Paul,1032 Conway St,55106,44.955603,-93.056898
2024-12-07,270000,2025-01-30,280000,3,2.0,1688,4966,Saint Paul,2092 Case Ave E,55119,44.970035,-93.012325
,,2025-01-28,280000,3,1.0,1274,10276,Saint Paul,785 McKnight Rd N,55119,44.965009,-93.005465
,,2025-03-24,280000,4,2.0,1750,10049,Saint Paul,188 Faye St,55119,44.946027,-93.021665
2024-10-11,264990,2025-01-15,265000,3,1.0,1654,4966,Saint Paul,437 Lawson Ave E,55130,44.972198,-93.082185
2024-11-22,235000,2025-01-28,235000,2,1.0,1134,4879,Saint Paul,1212 Beech St,55106,44.961938,-93.04936
2024-09-12,500000,2024-12-13,500000,4,2.5,2210,7841,Saint Paul,797 Lakeview Ave,55117,44.982176,-93.133741
2024-10-03,268000,2024-12-12,268000,3,1.0,1380,9100,Saint Paul,653 N Otsego St,55130,44.960557,-93.081967
,,2025-03-24,280000,4,2.0,1863,10123,Saint Paul,182 Faye St,55119,44.945821,-93.02166
2024-11-01,209900,2024-12-20,205000,3,2.0,1758,4879,Saint Paul,40 Geranium Ave W,55117,44.975332,-93.101817
2025-02-17,424900,2025-03-14,455000,4,2.5,2272,7841,Saint Paul,1730 Race St,55116,44.91518,-93.146897
2025-02-21,350000,2025-03-28,353500,4,2.5,1575,6098,Saint Paul,562 Ottawa Ave,55107,44.928944,-93.102918
2024-09-03,289900,2025-01-31,288422,3,2.5,2040,4792,Saint Paul,730 Jenks Ave,55106,44.970929,-93.069898
2025-03-03,249900,2025-04-09,260000,2,1.0,1133,5097,Saint Paul,1077 Idaho Ave W,55117,44.990367,-93.145496
2024-12-26,724900,2025-02-28,755000,4,3.5,2798,5358,Saint Paul,1216 Palace Ave,55105,44.928507,-93.15152
2024-09-14,764900,2025-02-07,750000,4,3.0,3005,8756,Saint Paul,48 Mississippi River Blvd N,55104,44.94351,-93.193034
2024-11-22,300000,2024-12-27,300000,3,1.0,1189,6578,Saint Paul,126 Syndicate St N,55104,44.945282,-93.15404
2024-10-11,309900,2025-04-15,309900,3,1.0,1501,7667,Saint Paul,1972 4th St E,55119,44.958301,-93.017151
2025-02-13,214900,2025-03-20,215000,3,1.0,1384,4966,Saint Paul,783 York Ave,55106,44.968747,-93.067274
2025-02-07,599900,2025-03-14,615000,5,2.0,2162,5227,Saint Paul,2135 Bayard Ave,55116,44.922767,-93.190584
2024-11-25,299900,2025-01-30,296500,3,2.0,1260,4922,Saint Paul,1685 Sherburne Ave,55104,44.956738,-93.171387
2025-03-25,175000,2025-03-25,167500,3,1.0,1040,5097,Saint Paul,2061 Minnehaha Ave E,55119,44.963318,-93.013445
2024-11-13,475000,2025-01-08,475000,4,2.5,2993,8625,Saint Paul,647 Manomin Ave,55107,44.92641,-93.101023
,,2025-02-19,210000,3,1.0,1290,6952,Saint Paul,1525 Pacific St,55106,44.951608,-93.035891
,,2025-04-21,600000,3,1.0,765,8398,Saint Paul,1860 Glen Ter,55116,44.909557,-93.150874
2025-04-10,625000,2025-05-01,805000,3,2.5,3043,11500,Saint Paul,860 Syndicate St S,55116,44.915314,-93.15395
,,2025-01-17,280000,3,1.0,1248,5763,Saint Paul,1158 Bradley St,55130,44.97611,-93.078235
2025-01-25,280000,2025-03-17,280000,3,1.0,1056,7492,Saint Paul,1680 Wilson Ave,55106,44.953881,-93.029299
2025-03-12,290000,2025-04-11,316500,3,2.0,1820,9932,Saint Paul,1691 Rose Ave E,55106,44.976843,-93.029067
,,2025-04-23,255000,2,1.0,952,6582,Saint Paul,7 Griggs St N,55104,44.941887,-93.152095
2024-11-14,315000,2025-01-03,315000,3,2.5,2240,5009,Saint Paul,1060 Lafond Ave,55104,44.960013,-93.144875
2025-02-24,415000,2025-04-11,440000,4,1.5,1624,4792,Saint Paul,216 Lexington Pkwy S,55105,44.934973,-93.146305
2025-04-30,625000,2025-04-30,625000,5,2.0,2164,5009,Saint Paul,2160 Bayard Ave,55116,44.922253,-93.191664
2024-10-09,549900,2024-12-27,544390,3,2.5,2158,5227,Saint Paul,2127 Dayton Ave,55104,44.947526,-93.190238
2025-01-07,710000,2025-01-31,688000,4,2.0,2350,9191,Saint Paul,220 Oak Grove Pl,55105,44.934791,-93.147542
2025-03-13,500000,2025-03-27,500000,3,1.5,2147,7492,Saint Paul,1660 Beechwood Ave,55116,44.914986,-93.170342
2024-11-30,1030000,2025-02-05,950000,6,4.0,4465,8538,Saint Paul,710 Lincoln Ave,55105,44.938559,-93.130051
2024-11-15,260000,2025-01-15,270000,4,2.0,1905,4966,Saint Paul,705 Jenks Ave,55106,44.971419,-93.070666
,,2025-04-09,227500,3,1.0,1564,6752,Saint Paul,1464 Kent St,55117,44.985284,-93.123282
2024-11-20,294900,2025-01-24,280000,3,2.0,1331,4835,Saint Paul,1421 Hewitt Ave,55104,44.966824,-93.160355
2025-02-02,900000,2025-04-04,900000,5,4.0,3000,5009,Saint Paul,2222 Scheffer Ave,55116,44.921331,-93.194216
2024-11-06,230000,2024-12-16,226000,3,2.0,1014,6839,Saint Paul,1468 Fremont Ave,55106,44.957429,-93.038471
2024-10-11,350000,2025-01-17,332500,3,2.0,1598,4792,Saint Paul,1023 Como Pl,55103,44.971907,-93.134734
2024-12-11,209000,2025-02-06,212000,3,2.0,1548,5619,Saint Paul,1060 Marshall Ave,55104,44.948211,-93.144981
2024-11-06,239900,2025-01-10,240000,4,2.0,1767,4966,Saint Paul,665 Wells St,55106,44.967803,-93.07246
2025-03-19,475000,2025-05-09,475000,4,2.5,3043,9365,Saint Paul,2150 Valley View Pl,55119,44.913396,-93.008825
2024-12-02,265000,2025-02-06,265000,3,2.5,1531,4966,Saint Paul,896 6th St E,55106,44.960097,-93.062769
,,2025-01-16,653000,5,2.5,2486,5998,Saint Paul,940 Goodrich Ave,55105,44.937583,-93.139839
,,2025-02-12,176000,3,1.5,1320,9030,Saint Paul,1093 Euclid St,55106,44.955222,-93.054357
2024-07-29,199900,2025-02-28,210000,3,1.0,1069,5140,Saint Paul,288 Sidney St E,55107,44.923705,-93.073326
2024-11-14,615000,2025-01-03,678000,3,1.5,1795,5053,Saint Paul,2020 Stanford Ave,55105,44.932252,-93.185794
2024-10-28,525000,2025-02-14,525000,3,1.5,2412,6229,Saint Paul,1242 Palace Ave,55105,44.92851,-93.152702
2025-04-15,499900,2025-05-15,515000,3,2.0,1328,6882,Saint Paul,741 Mount Curve Blvd,55116,44.919181,-93.19598
2025-02-13,454900,2025-04-30,448000,3,2.0,1876,5097,Saint Paul,1779 James Ave,55105,44.928186,-93.175463
2025-01-15,249900,2025-04-18,249900,2,1.0,780,5576,Saint Paul,673 Hazel St N,55119,44.961697,-93.020626
2024-06-22,285000,2025-02-05,295000,3,1.0,1635,9365,Saint Paul,1884 Carroll Ave,55104,44.950221,-93.179908
2024-08-07,225000,2025-01-08,230000,3,1.0,1200,4792,Saint Paul,636 Aurora Ave,55104,44.954565,-93.127161
2025-01-16,259900,2025-03-12,259900,4,1.5,1600,4879,Saint Paul,991 Geranium Ave E,55106,44.975981,-93.058671
2024-10-26,299900,2025-01-17,307000,4,3.0,1832,12589,Saint Paul,1271 Kennard St,55106,44.979712,-93.031062
2025-03-04,209900,2025-04-18,207165,2,2.0,1744,3398,Saint Paul,824 Como Ave,55103,44.973992,-93.133695
2024-12-02,335000,2025-02-28,325000,2,1.0,969,8015,Saint Paul,2052 Worcester Ave,55116,44.903273,-93.186721
2024-11-22,825000,2025-05-02,780000,4,1.5,3066,7841,Saint Paul,2349 Commonwealth Ave,55108,44.97863,-93.198536
2025-03-12,249000,2025-05-09,254000,2,1.5,1710,4835,Saint Paul,974 Fuller Ave,55104,44.953679,-93.141205
2025-03-06,299000,2025-04-15,285000,3,1.5,1510,4835,Saint Paul,794 Hyacinth Ave E,55106,44.979962,-93.066952
2025-02-03,495000,2025-03-24,495000,5,5.5,2520,8712,Saint Paul,673 Robert St S,55107,44.92559,-93.081154
2024-12-20,140000,2025-01-17,135000,2,1.0,996,5881,Saint Paul,1565 7th St E,55106,44.967002,-93.034376
2025-03-05,175000,2025-04-24,170000,3,1.0,1036,3920,Saint Paul,559 Forest St,55106,44.958175,-93.061231
2025-03-18,330000,2025-05-30,330000,4,2.0,2000,6316,Saint Paul,1162 Reaney Ave,55106,44.963747,-93.051579
2024-11-06,259000,2025-03-28,262000,2,2.0,1223,4922,Saint Paul,786 Thomas Ave,55104,44.959086,-93.133321
2025-03-14,259500,2025-04-28,270000,2,1.0,884,8102,Saint Paul,743 Idaho Ave W,55117,44.990311,-93.131406
2025-02-03,300000,2025-03-07,333000,4,2.0,2725,9017,Saint Paul,1133 Arundel St,55117,44.9753,-93.119158
2024-11-20,166000,2025-01-31,157501,3,2.0,1296,3093,Saint Paul,856 Marion St,55117,44.967084,-93.109397
2025-01-23,485000,2025-03-05,495000,3,1.5,1896,5445,Saint Paul,1817 Wellesley Ave,55105,44.931822,-93.176996
2025-04-11,199900,2025-05-28,220000,3,1.0,1616,6708,Saint Paul,1582 3rd St E,55106,44.956586,-93.033579
2025-04-18,839000,2025-06-03,839000,4,3.5,2826,5097,Saint Paul,1283 Hartford Ave,55116,44.923589,-93.154477
2025-04-01,279900,2025-05-12,280000,4,3.0,2120,5227,Saint Paul,947 6th St E,55106,44.960621,-93.06045
2025-04-11,335000,2025-05-27,355000,4,3.0,2510,7841,Saint Paul,1236 Churchill St,55103,44.978438,-93.14455
2025-03-24,315000,2025-05-27,335000,3,1.5,1943,6534,Saint Paul,1450 Nevada Ave E,55106,44.985407,-93.039067
2025-04-01,560000,2025-05-16,547500,4,2.0,2030,4922,Saint Paul,1756 Jefferson Ave,55105,44.930391,-93.17447
,,2025-05-20,63000,4,2.0,1946,7057,Saint Paul,1341 Barclay St,55106,44.981995,-93.038415
2025-04-22,575000,2025-05-15,630000,4,2.0,2144,5532,Saint Paul,974 Osceola Ave,55105,44.93548,-93.141083
2025-02-11,480000,2025-05-02,480000,4,2.0,2558,9148,Saint Paul,868 Mound St,55106,44.949409,-93.061856
2024-12-07,81000,2025-01-03,81000,2,1.5,1204,4922,Saint Paul,527 Edmund Ave,55103,44.958712,-93.122378
2025-03-24,284900,2025-05-12,288000,2,2.0,1546,14593,Saint Paul,1868 Minnehaha Ave E,55119,44.962593,-93.021611
2025-03-11,359900,2025-05-14,360000,3,1.0,1667,6229,Saint Paul,905 Iowa Ave W,55117,44.989444,-93.138198
2025-03-21,450000,2025-05-15,485000,3,2.5,1730,5009,Saint Paul,2156 Stanford Ave,55105,44.932249,-93.191512
2025-04-02,280000,2025-05-16,285000,3,2.0,1373,6229,Saint Paul,745 Manomin Ave,55107,44.923481,-93.100988
2024-09-14,350000,2025-02-19,350000,4,1.5,1966,7405,Saint Paul,12 Winthrop St S,55119,44.94064,-93.009625
2025-04-25,330000,2025-05-30,365000,3,1.0,1615,4008,Saint Paul,1033 Churchill St,55103,44.972212,-93.145802
2025-03-01,359900,2025-05-29,370000,3,2.5,1869,5184,Saint Paul,1597 Merrill St,55108,44.989338,-93.153058
2025-03-20,385000,2025-05-08,385000,4,2.0,2025,5009,Saint Paul,680 Fairview Ave N,55104,44.96161,-93.176868
2025-04-09,250000,2025-05-20,261000,4,2.0,1726,4356,Saint Paul,867 Jordan Ave,55119,44.967614,-93.017567
2025-03-26,244900,2025-05-16,255000,3,1.0,1073,5227,Saint Paul,948 Margaret St,55106,44.960991,-93.060455
2025-03-17,359900,2025-05-14,355000,5,3.0,2018,4966,Saint Paul,253 Warwick St,55105,44.933769,-93.163574
2025-03-28,219900,2025-05-16,219900,2,1.0,1093,6665,Saint Paul,1165 Breen St,55106,44.976325,-93.026947
2025-04-28,325000,2025-05-30,350000,3,2.0,1842,8102,Saint Paul,1471 Etna St,55106,44.985606,-93.042219
2024-11-07,450000,2025-01-10,480444,3,2.0,1923,8364,Saint Paul,1769 Saunders Ave,55116,44.914594,-93.175014
2025-02-01,169900,2025-03-13,160000,2,1.0,1310,4487,Saint Paul,911 Jenks Ave,55106,44.971483,-93.061994
2025-03-19,190000,2025-06-06,185000,3,1.5,1197,5184,Saint Paul,1150 5th St E,55106,44.959228,-93.051916
2025-04-16,550000,2025-06-06,550000,4,2.0,2137,6011,Saint Paul,1194 Laurel Ave,55104,44.944726,-93.150674
2025-05-05,260000,2025-06-06,260000,3,2.0,1560,1559,Saint Paul,751 Edmund Ave,55104,44.958697,-93.13193
,,2025-05-30,236209,3,1.5,1200,5798,Saint Paul,2039 Nortonia Ave,55119,44.965849,-93.014466
2024-12-11,249899,2025-02-14,250000,3,1.0,940,4356,Saint Paul,435 Banfil St,55102,44.93732,-93.118159
,,2025-05-30,310000,3,1.0,1022,7248,Saint Paul,217 Oak Grove Pl,55105,44.93495,-93.148221
2025-04-25,775000,2025-05-19,823000,6,2.5,3364,14375,Saint Paul,1737 Summit Ave,55105,44.942037,-93.173835
2025-02-13,895000,2025-02-13,895000,5,2.5,3534,9148,Saint Paul,785 Goodrich Ave,55105,44.938105,-93.13317
2025-05-09,600000,2025-06-05,630000,4,4.0,2368,6098,Saint Paul,2159 Princeton Ave,55105,44.936381,-93.191492
2025-03-13,509900,2025-05-27,497000,4,3.0,2074,479,Saint Paul,1993 Randolph Ave,55105,44.927333,-93.184483
2025-04-15,290000,2025-05-21,321000,3,2.0,1539,7405,Saint Paul,1750 Minnehaha Ave E,55106,44.962837,-93.026487
2025-03-04,260000,2025-04-30,282000,3,2.0,1961,1102,Saint Paul,1140 Lane Pl,55106,44.975759,-93.048794
2025-04-21,119900,2025-05-22,123500,1,2.0,626,5489,Saint Paul,2070 Stillwater Ave E,55119,44.968911,-93.013111
2025-04-01,257000,2025-05-22,257000,3,1.5,1353,4574,Saint Paul,117 Winifred St W,55107,44.931618,-93.090693
,,2025-05-28,160900,3,2.5,2464,7501,Saint Paul,1902 Carroll Ave,55104,44.950219,-93.180704
2025-04-22,300000,2025-06-03,325000,3,3.0,1613,9365,Saint Paul,1430 Birmingham St,55106,44.984374,-93.040205
2024-11-08,269900,2025-02-07,275800,3,1.0,1397,4617,Saint Paul,1501 Margaret St,55106,44.961582,-93.03704
2025-04-22,272500,2025-06-05,272500,3,1.0,1528,7405,Saint Paul,861 Carroll Ave,55104,44.950607,-93.136704
2024-12-13,350000,2024-12-13,350000,4,1.5,1590,7100,Saint Paul,2016 Iglehart Ave,55104,44.949162,-93.18552
,,2025-04-10,298000,2,2.0,1140,7505,Saint Paul,525 Wheelock Pkwy E,55130,44.987525,-93.078668
2025-01-18,300000,2025-02-24,290000,3,2.0,1504,10324,Saint Paul,1047 Breen St,55106,44.973039,-93.027041
2025-01-27,275000,2025-03-03,300000,2,1.5,1252,6360,Saint Paul,480 Orleans St,55107,44.931222,-93.09969
2025-02-04,288000,2025-03-03,353000,3,2.0,1283,4966,Saint Paul,1757 Englewood Ave,55104,44.964358,-93.174478
2024-05-15,1250000,2025-02-28,1200000,4,3.5,3766,18731,Saint Paul,1335 Beechwood Pl,55116,44.915441,-93.15643
2024-09-06,199000,2024-12-27,200000,3,1.0,1008,3049,Saint Paul,806 Agate St,55117,44.965511,-93.093761
2025-02-25,314900,2025-04-23,333000,4,2.0,1734,8102,Saint Paul,753 Hall Ave,55107,44.923373,-93.087018
,,2025-04-01,350000,3,1.5,1329,7501,Saint Paul,1970 Dayton Ave,55104,44.946955,-93.183528
2025-02-18,485000,2025-03-26,500000,4,2.0,2302,9191,Saint Paul,914 Arlington Ave W,55117,44.984322,-93.139046
,,2025-01-03,230000,2,1.0,691,5097,Saint Paul,1499 Holton St,55108,44.986254,-93.160872
2025-01-09,219900,2025-02-28,219900,2,2.0,1408,7492,Saint Paul,740 Bidwell St,55107,44.923767,-93.090548
2024-10-23,625000,2024-12-12,630000,4,2.5,2415,7405,Saint Paul,297 Saratoga St S,55105,44.932581,-93.164836
2025-01-13,280000,2025-02-07,280000,4,2.0,1606,9148,Saint Paul,1479 Winthrop St N,55119,44.985749,-93.010495
2025-03-12,245000,2025-04-18,285000,3,2.0,1511,4879,Saint Paul,1079 Rose Ave E,55106,44.97689,-93.054873
,,2025-02-18,300000,3,2.0,1315,7100,Saint Paul,1737 Orange Ave E,55106,44.979586,-93.026988
2025-01-23,357500,2025-03-18,362500,3,1.0,1512,4966,Saint Paul,1261 Watson Ave,55116,44.924492,-93.153471
,,2024-12-20,275000,3,2.0,1542,6599,Saint Paul,292 Thomas Ave,55103,44.959168,-93.112428
2025-01-11,225000,2025-02-18,225000,3,2.0,1354,5401,Saint Paul,1267 4th St E,55106,44.958847,-93.046924
,,2025-01-08,275000,3,1.0,1321,5053,Saint Paul,1107 Hawthorne Ave E,55106,44.978688,-93.053781
,,2025-01-24,147000,3,1.0,1108,4961,Saint Paul,862 3rd St E,55106,44.956482,-93.064129
,,2024-12-20,335000,5,4.5,2260,10001,Saint Paul,732 Jenks Ave,55106,44.970931,-93.069663
,,2025-05-05,805000,4,3.5,3528,17302,Saint Paul,1625 Edgcumbe Rd,55116,44.915312,-93.153394
2024-04-12,1275000,2025-01-17,1265000,6,5.5,7910,10759,Saint Paul,485 Summit Ave,55102,44.941659,-93.120488
2025-02-12,345000,2025-03-24,335000,3,2.0,1824,5968,Saint Paul,1868 Wilson Ave,55119,44.953846,-93.02136
2024-11-15,324999,2025-03-11,321000,3,1.5,1600,7187,Saint Paul,2218 Upper Afton Rd E,55119,44.940774,-93.00661
,,2025-01-30,221000,2,2.0,1120,4879,Saint Paul,923 Geranium Ave E,55106,44.975977,-93.061526
2025-02-07,150000,2025-01-27,150000,3,1.0,1112,4966,Saint Paul,1739 Race St,55116,44.915377,-93.147688
2025-03-01,199900,2025-04-01,210000,2,1.0,850,4879,Saint Paul,1783 Ames Ave,55119,44.972354,-93.024964
2025-03-20,379900,2025-04-25,400000,3,1.5,1151,6200,Saint Paul,1243 Randolph Ave,55105,44.927213,-93.152704
,,2025-03-27,385000,5,2.0,2126,9919,Saint Paul,1836 Marshall Ave,55104,44.948034,-93.177864
2025-01-28,359900,2025-04-14,359150,3,2.0,1420,4966,Saint Paul,1422 Juliet Ave,55105,44.92944,-93.16035
,,2025-03-26,254000,2,2.0,1183,6098,Saint Paul,1611 Ross Ave,55106,44.96609,-93.032438
2025-01-01,275000,2025-02-10,276000,3,2.0,1676,4530,Saint Paul,1027 Conway St,55106,44.956105,-93.057127
2024-09-25,524900,2024-12-13,525000,3,3.0,2969,6273,Saint Paul,1828 Montreal Ave,55116,44.91224,-93.177657
2024-11-16,219900,2025-02-07,210000,2,1.0,1701,4792,Saint Paul,1191 Maryland Ave E,55106,44.977799,-93.05007
2025-02-21,297997,2025-04-03,305000,4,2.0,1800,5053,Saint Paul,900 Palace Ave,55102,44.928415,-93.138159
,,2025-04-15,215000,4,1.5,1538,4879,Saint Paul,664 Orange Ave E,55106,44.979006,-93.072422
2025-03-11,260000,2025-04-18,258000,2,1.0,1085,8973,Saint Paul,2056 Nokomis Ave,55119,44.966266,-93.014099
2024-11-15,240000,2025-01-21,244000,3,2.0,980,5140,Saint Paul,1915 4th St E,55119,44.958822,-93.019431
2025-01-17,220000,2025-02-28,217000,4,2.0,1434,4792,Saint Paul,1222 Minnehaha Ave E,55106,44.962834,-93.049063
2024-09-20,259900,2025-02-03,287000,3,1.0,1428,4792,Saint Paul,115 Winifred St W,55107,44.931618,-93.090538
2025-02-04,260000,2025-03-03,286000,2,2.0,1271,4792,Saint Paul,1354 Blair Ave,55104,44.96087,-93.157474
2025-02-21,235000,2025-03-25,230000,4,2.0,1969,6011,Saint Paul,422 Minnehaha Ave E,55130,44.962739,-93.082782
2024-09-08,164900,2024-12-27,165000,4,2.0,1742,6926,Saint Paul,1011 Minnehaha Ave E,55106,44.963315,-93.057829
,,2025-02-27,205024,3,1.0,1424,4796,Saint Paul,1611 Edmund Ave,55104,44.958626,-93.168313
2024-11-02,269000,2024-12-16,275000,3,1.0,1250,4922,Saint Paul,1266 Lafond Ave,55104,44.959984,-93.153617
2024-10-25,260000,2025-01-24,262250,2,2.0,1447,4966,Saint Paul,1886 Orange Ave E,55119,44.979049,-93.020854
2025-02-12,440000,2025-03-21,460000,3,2.5,2140,5968,Saint Paul,1447 Portland Ave,55104,44.94319,-93.161235
,,2025-01-17,385000,3,1.0,1218,5079,Saint Paul,1616 Hartford Ave,55116,44.92311,-93.168606
2025-02-05,385000,2025-03-14,385000,3,1.0,1248,5227,Saint Paul,1809 Stanford Ave,55105,44.932729,-93.176668
,,2025-03-27,268000,3,1.0,885,11718,Saint Paul,857 Iroquois Ave,55119,44.967587,-93.01682
,,2024-12-31,245500,2,1.0,1150,5118,Saint Paul,967 Bayard Ave,55102,44.922642,-93.140863
,,2025-03-21,175000,2,1.0,1277,7100,Saint Paul,2051 Ivy Ave E,55119,44.981395,-93.013684
,,2025-01-03,319900,3,2.0,1240,5001,Saint Paul,1952 Nevada Ave E,55119,44.985385,-93.018012
,,2025-03-04,215000,1,1.0,693,5040,Saint Paul,1875 Cottage Ave E,55119,44.983175,-93.021246
,,2025-01-21,332000,4,2.0,2274,7148,Saint Paul,240 Kennard St,55106,44.947227,-93.02989
2024-10-14,329000,2024-12-10,323000,4,2.5,1654,5793,Saint Paul,609 Idaho Ave E,55130,44.990356,-93.074931
,,2025-02-05,120000,3,1.0,1516,4757,Saint Paul,201 Genesee St,55117,44.965498,-93.091811
2024-12-11,284900,2025-03-20,250000,3,2.0,1993,6839,Saint Paul,2105 Fremont Ave E,55119,44.957899,-93.011612
2024-11-06,350000,2024-12-13,355000,3,1.0,1415,7971,Saint Paul,1215 Colette Pl,55116,44.904761,-93.183688
2025-01-09,269990,2025-02-28,272000,3,2.0,1355,5097,Saint Paul,1978 5th St E,55119,44.959216,-93.016885
2024-09-09,311000,2025-03-21,305000,4,2.0,2033,6186,Saint Paul,808 Brown Ave,55107,44.921724,-93.070718
2024-11-19,220000,2025-03-10,223000,3,1.0,1050,5401,Saint Paul,1743 Minnehaha Ave E,55106,44.963357,-93.026747
2024-12-03,319900,2025-01-08,330000,4,3.0,2702,12001,Saint Paul,293 Burlington Rd,55119,44.930687,-93.014274
,,2025-01-28,280000,4,2.0,1542,4927,Saint Paul,714 Parkway Dr,55106,44.988931,-93.071855
,,2025-01-23,265000,3,2.0,1260,5118,Saint Paul,1638 Saint Albans St N,55117,44.99054,-93.128321
2025-02-06,265000,2025-03-21,275000,3,1.5,1656,10890,Saint Paul,382 Dewey St,55104,44.952928,-93.178223
,,2025-01-22,130000,1,1.0,884,5009,Saint Paul,788 Sims Ave,55106,44.969147,-93.067115
,,2025-01-10,112300,3,1.5,1602,4796,Saint Paul,823 Margaret St,55106,44.961491,-93.065553
2024-10-25,250000,2024-12-11,244000,3,1.0,1266,4051,Saint Paul,931 Charles Ave,55104,44.9578,-93.139588
2025-01-28,250000,2025-03-20,254000,3,1.0,1500,4095,Saint Paul,1633 Case Ave,55106,44.970522,-93.03147
,,2025-02-12,280000,3,1.5,1644,12449,Saint Paul,1270 Arkwright St,55130,44.979444,-93.083305
,,2025-04-22,71500,1,1.0,944,4090,Saint Paul,337 Stinson St,55117,44.96955,-93.114285
2024-11-08,395000,2025-02-14,405000,3,2.5,2436,9627,Saint Paul,436 Wheelock Pkwy E,55130,44.989258,-93.08306
2025-02-13,470000,2025-02-28,470000,2,1.0,1410,2788,Saint Paul,70 Lawton Steps,55102,44.93965,-93.119166
,,2025-02-05,123465,4,1.0,2240,6273,Saint Paul,197 Congress St W,55107,44.932481,-93.09453
2025-01-03,215000,2025-01-31,227700,3,1.0,1458,6186,Saint Paul,1617 Arlington Ave E,55106,44.985003,-93.032106
2025-03-29,529900,2025-04-24,535000,4,2.0,2351,6926,Saint Paul,985 Iowa Ave W,55117,44.989469,-93.141711
,,2025-01-28,255000,3,1.0,1441,4918,Saint Paul,1245 5th St E,55106,44.959767,-93.047868
2024-09-25,235000,2024-12-23,220000,3,1.5,1213,9148,Saint Paul,520 Beaumont St,55130,44.961287,-93.078331
,,2024-12-30,205000,4,1.0,912,5097,Saint Paul,1182 Ross Ave,55106,44.965554,-93.05058
2025-01-16,265000,2025-03-14,275000,3,1.0,1559,7405,Saint Paul,2184 Rose Ave E,55119,44.975923,-93.008711
2024-12-23,449900,2025-02-28,450900,3,1.5,1893,4966,Saint Paul,1430 Stanford Ave,55105,44.932167,-93.160662
2024-11-18,270000,2024-12-27,270000,3,1.0,967,5227,Saint Paul,1147 Minnehaha Ave W,55104,44.963266,-93.148511
,,2024-12-27,111500,3,1.0,1320,3999,Saint Paul,771 Aurora Ave,55104,44.955047,-93.132689
,,2025-04-24,325000,2,1.0,1456,2962,Saint Paul,185 Goodrich Ave,55102,44.937964,-93.108124
2024-12-02,339900,2025-01-31,339900,4,1.5,1388,6142,Saint Paul,626 Reaney Ave,55130,44.963669,-93.074138
2025-02-05,169900,2025-03-24,172000,2,1.0,1008,4879,Saint Paul,62 Geranium Ave W,55117,44.975334,-93.102744
,,2025-01-15,273000,4,1.5,1670,6599,Saint Paul,867 Western Ave N,55117,44.967323,-93.116488
2025-02-11,825000,2025-04-25,902500,5,2.5,2639,10193,Saint Paul,2141 Doswell Ave,55108,44.983247,-93.190249
2025-01-29,269000,2025-04-18,269000,2,2.0,990,7536,Saint Paul,1266 Clarence St,55106,44.979563,-93.042744
,,2025-04-24,520000,4,2.0,2059,6251,Saint Paul,1884 Montreal Ave,55116,44.91224,-93.180202
2024-09-12,269900,2025-01-17,276000,5,2.0,1840,6229,Saint Paul,670 Cherry St,55106,44.950322,-93.066074
,,2025-01-28,175000,4,1.0,1003,4661,Saint Paul,444 Maryland Ave E,55130,44.977104,-93.081781
2024-11-12,310000,2025-01-02,310000,3,1.0,1420,4792,Saint Paul,895 Carroll Ave,55104,44.950596,-93.137952
2024-11-15,290000,2024-12-17,290000,4,1.5,1784,6229,Saint Paul,236 Isabel St W,55107,44.932823,-93.095502
2025-03-21,1250000,2025-04-11,1275000,6,4.5,4639,17642,Saint Paul,1943 Summit Ave,55105,44.942069,-93.182472
2024-10-04,199900,2024-12-12,200000,3,1.0,979,4966,Saint Paul,887 Lawson Ave E,55106,44.972356,-93.062937
2025-01-04,130000,2025-01-24,125000,2,1.0,700,6970,Saint Paul,1365 Alaska Ave,55116,44.916396,-93.147046
2024-11-06,275000,2024-12-13,275000,4,1.0,1215,6098,Saint Paul,1599 Margaret St,55106,44.961582,-93.032733
2025-01-17,239900,2025-03-13,250000,3,1.0,1269,4748,Saint Paul,730 Aurora Ave,55104,44.954565,-93.130914
2025-03-01,279900,2025-04-18,290000,4,2.0,1950,4879,Saint Paul,1007 Edgerton St,55130,44.971588,-93.076444
,,2025-03-11,320000,4,2.5,1684,6839,Saint Paul,1618 Payne Ave,55130,44.989983,-93.073325
2024-11-04,300000,2024-12-13,320000,3,2.0,1596,8102,Saint Paul,1490 Birmingham St,55106,44.986252,-93.040188
,,2025-03-11,162500,2,1.0,1341,6199,Saint Paul,1368 Dale St N,55117,44.982323,-93.125893
2024-11-12,447000,2025-01-10,447000,4,3.0,2068,5009,Saint Paul,1306 Bayard Ave,55116,44.922179,-93.155404
2024-10-03,275000,2025-03-25,275000,2,1.5,1303,13940,Saint Paul,1410 Mechanic Ave,55106,44.972338,-93.042436
2024-09-21,560000,2025-03-03,550000,4,2.5,1800,11238,Saint Paul,2246 Commonwealth Ave,55108,44.979965,-93.194889
,,2025-01-02,140000,3,1.5,1384,5759,Saint Paul,1126 Pacific St,55106,44.951059,-93.052808
,,2025-01-14,165000,3,1.0,1336,4961,Saint Paul,590 Thomas Ave,55103,44.959082,-93.125096
2024-12-09,319500,2025-01-27,330000,5,3.0,1842,4835,Saint Paul,1295 Ross Ave,55106,44.965775,-93.045951
2024-07-30,299900,2025-01-13,274500,2,1.5,1164,6970,Saint Paul,1359 Alaska Ave,55116,44.916259,-93.147048
,,2025-02-05,165000,2,2.0,958,6050,Saint Paul,2007 Reaney Ave E,55119,44.964218,-93.015781
2025-02-14,230000,2025-02-26,250000,3,1.5,1346,5358,Saint Paul,1541 Hamline Ave N,55108,44.987628,-93.157004
2024-09-05,484900,2025-01-27,479000,4,2.5,2078,6534,Saint Paul,1062 Bowdoin St,55116,44.909396,-93.188223
2024-11-08,259900,2025-02-14,270000,3,1.5,1752,4312,Saint Paul,1063 Norton St,55117,44.973429,-93.120357
2025-01-04,675000,2025-02-20,675000,3,2.0,2278,7405,Saint Paul,1661 Hillcrest Ave,55116,44.917291,-93.170494
2025-02-28,385000,2025-03-31,460000,2,1.0,1580,5140,Saint Paul,1425 Fairmount Ave,55105,44.937253,-93.160399
2025-02-11,270000,2025-04-03,280000,2,1.0,1000,5619,Saint Paul,882 Hatch Ave,55103,44.971081,-93.137363
2024-09-04,215000,2025-01-30,205000,1,1.0,966,5576,Saint Paul,1841 Minnehaha Ave W,55104,44.963225,-93.178111
2025-03-19,270000,2025-04-29,300000,3,3.0,1416,4487,Saint Paul,2040 Saint Anthony Ave,55104,44.95324,-93.186639
2024-10-08,319900,2025-02-07,310000,3,2.0,1154,6098,Saint Paul,720 Randolph Ave,55102,44.926608,-93.130175
2024-12-29,280000,2025-03-12,285000,4,2.5,2050,6534,Saint Paul,1863 Mechanic Ave,55119,44.97325,-93.021925
,,2025-01-22,230000,5,2.0,1686,4400,Saint Paul,305 Lafond Ave,55103,44.960658,-93.112872
2025-02-27,299900,2025-03-24,307500,4,1.0,1696,4922,Saint Paul,1957 Nevada Ave E,55119,44.985893,-93.017854
,,2025-02-13,165000,2,1.0,1368,3899,Saint Paul,685 Stewart Ave,55102,44.922961,-93.129019
,,2025-01-27,300000,3,1.5,1248,7501,Saint Paul,264 Wyoming St W,55107,44.920417,-93.096634
2025-02-24,300000,2025-03-31,300000,5,2.5,1904,8712,Saint Paul,119 Granite St,55117,44.966329,-93.095371
,,2025-04-11,465000,3,2.0,1883,,Saint Paul,2152 St Clair Ave,55105,44.93406,-93.191355
2024-10-08,259900,2024-12-09,274900,2,2.0,1174,3790,Saint Paul,657 Bidwell St,55107,44.926139,-93.091334
2025-01-31,215000,2025-02-27,220000,3,1.0,1323,6098,Saint Paul,612 Orleans St,55107,44.927438,-93.099659
,,2025-01-07,175000,4,1.5,1425,5009,Saint Paul,611 Cook Ave E,55130,44.973174,-93.074652
2024-12-10,295000,2025-01-03,297000,4,2.0,1789,5009,Saint Paul,1238 Seminary Ave,55104,44.964515,-93.15253
2024-12-18,360000,2025-03-17,358000,3,2.0,1858,10759,Saint Paul,1054 Saint Paul Ave,55116,44.910009,-93.182724
2024-10-30,295000,2025-01-06,275000,4,3.0,1741,9278,Saint Paul,1024 Kilburn St,55103,44.971908,-93.140176
,,2024-12-09,148000,3,1.0,1376,6142,Saint Paul,1339 5th St E,55106,44.959778,-93.044027
2024-08-30,250000,2025-03-07,235000,4,1.5,1562,5227,Saint Paul,411 Forest St,55106,44.953686,-93.06111
2025-01-30,1099000,2025-04-03,1000000,5,3.5,4112,15725,Saint Paul,649 Summit Ave,55105,44.941625,-93.127484
2025-02-26,247000,2025-04-15,247000,2,1.0,1001,4792,Saint Paul,977 Fuller Ave,55104,44.954186,-93.141358
2025-01-16,250000,2025-03-28,240000,3,1.5,1390,4792,Saint Paul,411 Thomas Ave,55103,44.959625,-93.117411
2025-03-12,174900,2025-04-14,180000,4,1.0,1262,7405,Saint Paul,1294 Westminster St,55130,44.979947,-93.085819
,,2025-05-06,210000,3,2.0,1071,5040,Saint Paul,1350 Snelling Ave N,55108,44.981963,-93.166591
2025-02-14,370000,2025-03-21,370000,4,2.0,2158,6839,Saint Paul,1545 Etna St,55106,44.987934,-93.042202
2025-03-19,249900,2025-04-11,286000,1,2.0,1591,4922,Saint Paul,1111 Orange Ave E,55106,44.979611,-93.053635
2024-12-23,290000,2025-03-27,295000,3,2.5,1608,5793,Saint Paul,2024 California Ave E,55119,44.990901,-93.014742
2024-12-05,210000,2025-01-28,193500,1,1.0,837,5001,Saint Paul,1148 Magnolia Ave E,55106,44.973662,-93.05202
2025-02-03,225000,2025-03-12,210000,3,1.5,1690,4356,Saint Paul,1149 Selby Ave,55104,44.946879,-93.1486
,,2024-12-23,190000,2,1.0,1332,7057,Saint Paul,1149 Cumberland St,55117,44.975795,-93.117837
2025-03-22,499900,2025-04-14,531000,3,2.0,1680,5968,Saint Paul,1384 Laurel Ave,55104,44.944734,-93.158801
2024-12-26,340000,2025-02-12,336000,3,3.0,1480,4879,Saint Paul,1469 Western Ave N,55117,44.985455,-93.116401
,,2025-02-27,88000,2,1.0,796,8908,Saint Paul,312 Jessamine Ave E,55130,44.974361,-93.087242
,,2025-03-14,117500,2,1.0,1316,4922,Saint Paul,2015 Bush Ave E,55119,44.964978,-93.015404
,,2025-03-05,225000,2,1.0,864,5319,Saint Paul,1701 Randolph Ave,55105,44.927292,-93.172307
2024-12-04,187400,2024-12-30,185000,2,1.0,1250,4704,Saint Paul,234 Ivy Ave W,55117,44.980744,-93.109968
2025-02-08,429000,2025-03-14,452000,3,2.0,1778,6273,Saint Paul,975 Iowa Ave W,55117,44.989466,-93.141293
,,2025-01-09,275000,3,2.0,1882,4961,Saint Paul,1267 Sherburne Ave,55104,44.956892,-93.153623
2025-01-17,925000,2025-03-27,925000,3,3.0,3445,18382,Saint Paul,1189 Summit Ave,55105,44.942002,-93.150275
2025-01-03,249900,2025-01-31,270000,3,2.0,1763,6656,Saint Paul,478 Lafond Ave,55103,44.959922,-93.120333
2024-10-30,420000,2025-01-22,416000,3,1.5,2128,3223,Saint Paul,107 Milton St N,55104,44.944573,-93.1392
,,2024-12-18,422500,3,2.0,1669,6534,Saint Paul,1085 Central Ave W,55104,44.95329,-93.145675
2024-12-11,374900,2024-12-20,390000,3,1.0,1296,5053,Saint Paul,1663 Scheffer Ave,55116,44.921817,-93.17061
2025-02-03,695000,2025-04-10,686500,4,2.5,2096,7405,Saint Paul,2324 Brewster St,55108,44.976619,-93.189709
2025-03-21,325000,2025-04-28,351500,2,1.0,1349,5184,Saint Paul,1591 Fernwood St,55108,44.989188,-93.151762
2025-02-06,259900,2025-03-28,245000,3,2.0,1296,6970,Saint Paul,46 Winona St E,55107,44.921134,-93.083125
2024-10-18,239000,2025-03-13,162000,2,1.0,1111,6098,Saint Paul,1294 Grand Ave,55105,44.939717,-93.154928
2025-02-07,290000,2025-04-29,290000,4,2.0,1510,5053,Saint Paul,1264 Reaney Ave,55106,44.96377,-93.047128
2024-08-09,309000,2025-03-21,290000,3,2.0,1858,7318,Saint Paul,2044 Fremont Ave E,55119,44.957385,-93.013994
2025-03-12,269900,2025-05-01,305000,3,1.5,1612,14505,Saint Paul,1437 Mechanic Ave,55106,44.973075,-93.040723
2024-12-04,219900,2025-04-02,219900,2,1.5,1145,4792,Saint Paul,286 Bates Ave,55106,44.955447,-93.067986
2025-03-17,719900,2025-04-24,779000,4,3.5,3618,7187,Saint Paul,323 Mount Curve Blvd,55105,44.931928,-93.193986
2024-11-21,341600,2025-05-02,341610,4,3.0,2746,7492,Saint Paul,735 Margaret St,55106,44.961474,-93.069727
2025-02-14,839900,2025-03-21,839900,5,3.0,2798,6752,Saint Paul,1844 Eleanor Ave,55116,44.920425,-93.17831
2025-02-12,373000,2025-03-10,388000,3,2.0,1552,4356,Saint Paul,1474 Hague Ave,55104,44.945551,-93.162552
2025-04-10,639900,2025-05-29,700000,4,2.5,2134,5053,Saint Paul,1674 Juliet Ave,55105,44.929471,-93.171111
2024-12-13,270000,2025-01-31,270000,2,1.0,1500,4879,Saint Paul,1815 Maryland Ave E,55119,44.977768,-93.023705
2025-05-01,499900,2025-05-30,470000,3,2.0,2248,4835,Saint Paul,2083 Pinehurst Ave,55116,44.919133,-93.188437
2024-11-18,238000,2025-01-17,242000,3,1.0,1416,5009,Saint Paul,1556 Reaney Ave,55106,44.963779,-93.034683
2025-03-13,244900,2025-05-12,244900,4,2.0,1258,4835,Saint Paul,670 Fuller Ave,55104,44.953669,-93.128378
2025-03-07,269998,2025-05-09,260000,4,2.0,1742,7405,Saint Paul,1494 Maryland Ave E,55106,44.977268,-93.037599
2025-04-30,210000,2025-05-28,210000,1,1.0,728,4922,Saint Paul,1437 Charles Ave,55104,44.957751,-93.160951
2024-10-29,265000,2024-12-20,251500,4,2.0,1315,6621,Saint Paul,530 Brainerd Ave,55130,44.979829,-93.078096
2025-04-17,349000,2025-05-27,400000,4,2.0,1310,5271,Saint Paul,1917 Juliet Ave,55105,44.930021,-93.181278
2025-03-19,230000,2025-05-05,250000,2,1.0,998,7754,Saint Paul,883 Lake St,55119,44.968087,-93.006854
2025-02-05,314900,2025-05-20,310000,3,2.0,1322,4966,Saint Paul,1294 Kent St,55117,44.980106,-93.123391
2025-04-08,375000,2025-05-09,425000,4,1.5,3350,6621,Saint Paul,200 Prescott St,55107,44.927366,-93.077252
2025-04-03,249900,2025-05-15,255000,3,1.0,1198,4966,Saint Paul,1046 Magnolia Ave E,55106,44.973649,-93.056447
2024-09-28,160000,2025-05-09,160000,2,1.5,1139,11195,Saint Paul,355 Topping St,55117,44.967753,-93.114982
2025-02-07,250000,2025-04-22,250000,2,1.0,1238,5009,Saint Paul,1665 Lafond Ave,55104,44.960434,-93.170644
2025-04-18,339900,2025-05-15,361000,4,2.0,1381,5140,Saint Paul,1606 Fernwood St,55108,44.989634,-93.151022
2025-03-10,169900,2025-05-16,165000,2,1.0,572,4792,Saint Paul,1690 Margaret St,55106,44.96102,-93.029122
2025-04-03,349900,2025-06-02,365000,3,1.5,1807,6621,Saint Paul,831 California Ave W,55117,44.9912,-93.134721
2025-04-11,244900,2025-05-30,244900,3,1.0,1198,6665,Saint Paul,2050 Manitou Ave,55119,44.967819,-93.01444
2025-04-25,305000,2025-06-02,320000,3,2.0,1253,5097,Saint Paul,1603 Saint Albans St N,55117,44.989555,-93.129022
2025-03-11,699900,2025-04-07,740000,4,2.5,2496,6011,Saint Paul,883 Fairmount Ave,55105,44.937063,-93.137445
2025-04-16,540000,2025-05-09,540000,4,3.0,2030,5227,Saint Paul,1548 Osceola Ave,55105,44.935826,-93.165657
2025-03-10,569900,2025-04-28,595000,5,3.5,2655,6186,Saint Paul,1766 Sheridan Ave,55116,44.901405,-93.175245
2025-02-18,250000,2025-03-14,260000,2,1.5,1068,5227,Saint Paul,1231 Magnolia Ave E,55106,44.97419,-93.048578
2024-11-01,449900,2024-12-17,445000,3,2.0,1780,4966,Saint Paul,1727 Eleanor Ave,55116,44.920916,-93.173307
2025-03-14,500000,2025-04-18,500000,4,3.0,2250,7405,Saint Paul,618 Brimhall St,55116,44.922853,-93.165363
2024-11-20,600000,2025-04-22,575000,3,3.0,2066,10890,Saint Paul,2019 Ramlow Pl,55116,44.905511,-93.185581
2025-03-25,625000,2025-05-29,680000,4,3.0,2517,7841,Saint Paul,1968 Norfolk Ave,55116,44.897995,-93.183533
2025-01-09,255000,2025-03-18,253000,3,1.0,1140,5079,Saint Paul,1605 Reaney Ave,55106,44.964202,-93.032609
2025-04-19,299500,2025-05-27,317400,3,2.0,2088,15725,Saint Paul,1390 Arlington Ave E,55106,44.984281,-93.041695
2025-02-12,279900,2025-03-14,277000,4,1.0,1560,12415,Saint Paul,565 Hazel St N,55119,44.958344,-93.020781
2025-02-26,425000,2025-04-25,400000,4,1.5,1776,5968,Saint Paul,1607 Ashland Ave,55104,44.944258,-93.168134
2025-01-23,395000,2025-02-25,405000,3,3.0,2005,5663,Saint Paul,2079 Bayard Ave,55116,44.922775,-93.188211
2025-01-10,145000,2025-03-07,145000,2,1.0,1002,4835,Saint Paul,355 Burgess St,55117,44.968644,-93.115053
2025-03-09,250000,2025-05-16,248500,2,1.0,713,2483,Saint Paul,1310 Laurel Ave,55104,44.944819,-93.155426
2025-03-12,130000,2025-03-28,141000,4,2.0,1316,4617,Saint Paul,1112 Euclid St,55106,44.95472,-93.053561
2025-04-23,175000,2025-06-05,175000,2,1.0,1041,5227,Saint Paul,1233 Bradley St,55130,44.978517,-93.079003
2025-05-05,325000,2025-05-27,380000,3,2.5,1402,6229,Saint Paul,1061 Oxford St N,55103,44.97311,-93.144355
2025-04-22,250000,2025-05-23,250000,3,1.5,1271,4879,Saint Paul,1468 Hazelwood St,55106,44.985521,-93.035093
2025-04-22,300000,2025-05-27,300750,3,1.0,2084,8276,Saint Paul,1397 McAfee St,55106,44.983484,-93.044827
2024-10-08,274900,2025-05-23,275000,2,1.0,896,2483,Saint Paul,775 Butternut Ave,55102,44.920408,-93.130539
,,2025-05-27,100000,1,1.0,612,4961,Saint Paul,2002 Orange Ave E,55119,44.979044,-93.015803
2025-04-06,350000,2025-05-20,355000,2,1.0,1128,6360,Saint Paul,1957 Lincoln Ave,55105,44.939321,-93.183152
2025-04-19,310000,2025-06-06,300000,3,2.0,1648,6098,Saint Paul,680 Hyacinth Ave E,55106,44.979913,-93.071828
2025-04-29,399900,2025-06-06,410000,3,2.0,1540,4966,Saint Paul,1368 Scheffer Ave,55116,44.921278,-93.158094
2025-02-20,157900,2025-05-29,155000,1,1.0,872,5227,Saint Paul,1239 Burr St,55130,44.978498,-93.080268
2025-04-24,384900,2025-05-27,397000,4,2.5,2027,8451,Saint Paul,8 Nelson St,55119,44.941432,-93.010905
2025-03-18,294900,2025-05-20,300000,4,2.0,1709,4879,Saint Paul,1272 Forest St,55106,44.979688,-93.060589
2024-01-27,1294349,2025-02-28,1269421,5,3.5,3547,7405,Saint Paul,2103 Juliet Ave,55105,44.930033,-93.189158
2025-03-21,260000,2025-04-30,275000,3,2.0,1399,4792,Saint Paul,926 Central Ave W,55104,44.952787,-93.139351
2024-12-21,435000,2025-02-04,440000,4,2.5,2196,9583,Saint Paul,1454 Almond Ave,55108,44.978914,-93.161439
2024-11-24,275000,2025-04-14,286000,4,2.0,1996,3964,Saint Paul,1252 Albemarle St,55117,44.978855,-93.106847
2025-04-23,525000,2025-06-03,551500,3,1.5,1597,4840,Saint Paul,2092 Jefferson Ave,55105,44.930417,-93.188811
2025-02-10,539900,2025-04-01,603000,3,2.0,1868,5793,Saint Paul,521 Montrose Ln,55116,44.925772,-93.19391
2025-04-21,289900,2025-05-29,310000,4,1.5,1352,4966,Saint Paul,1001 Orchard Ave,55103,44.972665,-93.142397
2025-04-10,159900,2025-05-30,160000,3,1.0,936,4835,Saint Paul,743 Wilson Ave,55106,44.954264,-93.064629
2024-10-17,260000,2025-01-03,249000,3,2.0,1222,12763,Saint Paul,212 Acker St E,55117,44.963979,-93.091595
2025-05-12,174999,2025-06-06,175000,2,1.0,784,5358,Saint Paul,839 Englewood Ave,55104,44.96415,-93.135544
2025-05-16,400000,2025-05-30,447500,3,1.0,1465,4966,Saint Paul,1877 Jefferson Ave,55105,44.930922,-93.179671
2025-03-09,215000,2025-03-27,215000,2,2.0,1063,4922,Saint Paul,1829 Reaney Ave E,55119,44.964234,-93.023269
2025-02-24,364900,2025-04-02,390000,3,1.0,1248,4574,Saint Paul,2203 Buford Ave,55108,44.985284,-93.193258
2025-02-18,300000,2025-04-03,325000,3,1.0,1429,4356,Saint Paul,81 Congress St W,55107,44.932518,-93.088956
2024-12-10,199900,2025-02-28,194000,2,1.0,1214,4922,Saint Paul,1807 Bush Ave E,55119,44.965137,-93.024037
,,2025-03-17,90000,3,1.0,712,3093,Saint Paul,1002 Front Ave,55103,44.969949,-93.142496
,,2025-04-14,240000,5,2.0,1570,4918,Saint Paul,929 Margaret St,55106,44.961507,-93.061478
,,2025-01-21,220000,2,2.0,1414,5001,Saint Paul,375 Erie St,55102,44.929938,-93.122358
2025-03-11,475000,2025-04-10,500000,5,2.0,2582,5358,Saint Paul,1541 Albert St N,55108,44.987606,-93.159551
,,2025-04-18,499000,2,2.0,1510,7492,Saint Paul,1486 Lincoln Ave,55105,44.938692,-93.163078
2025-01-08,450000,2025-04-17,456000,3,2.5,1407,5097,Saint Paul,1611 Stanford Ave,55105,44.932699,-93.168396
2024-11-18,599900,2025-03-05,585000,3,2.5,1645,3528,Saint Paul,603 Summit Ave,55102,44.941732,-93.125467
,,2025-04-04,330000,3,1.0,1368,6299,Saint Paul,2007 Itasca Ave,55116,44.907331,-93.184996
2025-03-19,550000,2025-05-02,565000,5,2.5,2501,5227,Saint Paul,1383 Simpson St,55108,44.982995,-93.163468
,,2025-04-21,140000,3,1.0,1590,6360,Saint Paul,2146 Nortonia Ave,55119,44.967428,-93.010745
,,2024-12-17,249900,4,1.0,1604,4800,Saint Paul,1676 Van Buren Ave,55104,44.961711,-93.171115
,,2025-03-03,88000,3,2.0,1253,5732,Saint Paul,308 Jessamine Ave E,55130,44.974363,-93.087474
,,2025-04-01,230000,3,2.0,1087,4552,Saint Paul,233 Maryland Ave W,55117,44.977642,-93.110092
2025-02-21,219900,2025-03-27,222000,3,1.0,1104,4792,Saint Paul,2002 Hawthorne Ave E,55119,44.978139,-93.015965
2024-10-24,259900,2025-01-31,252500,3,2.0,1468,4574,Saint Paul,1087 Wakefield Ave,55106,44.953411,-93.054545
2024-11-15,250000,2025-02-06,257000,3,1.0,1148,7405,Saint Paul,2197 3rd St E,55119,44.957015,-93.008301
2025-02-05,300000,2025-04-30,300300,3,2.0,1568,5140,Saint Paul,1920 4th St E,55119,44.958306,-93.019276
,,2025-03-12,155000,3,2.0,1356,5998,Saint Paul,1026 Wilson Ave,55106,44.953803,-93.057124
2024-11-26,158000,2025-01-31,158000,3,1.0,1530,4922,Saint Paul,750 Charles Ave,55104,44.957271,-93.131924
,,2025-01-14,302500,4,1.0,1524,7100,Saint Paul,416 Hoyt Ave E,55130,44.987947,-93.083001
2024-11-15,462500,2024-12-13,462500,4,3.0,2790,12632,Saint Paul,613 North St,55106,44.959579,-93.074793
2025-02-25,429900,2025-04-11,430000,4,3.0,2684,12240,Saint Paul,635 Burlington Rd,55119,44.921593,-93.009235
2025-01-30,200000,2025-04-01,199000,4,1.5,1640,3615,Saint Paul,670 Edmund Ave,55104,44.958173,-93.128397
2025-03-07,575000,2025-04-15,615000,4,2.5,2159,7710,Saint Paul,2119 Iglehart Ave,55104,44.949978,-93.189693
2025-04-02,275000,2025-05-05,316000,4,2.0,1330,4487,Saint Paul,1151 Hamline Ave N,55108,44.975957,-93.157159
2025-03-20,350000,2025-05-01,421000,3,1.0,1300,5097,Saint Paul,380 Saratoga St S,55105,44.93005,-93.164119
2025-03-19,249900,2025-05-02,253000,3,1.0,1040,6621,Saint Paul,246 Belvidere St E,55107,44.921918,-93.075499
2024-11-27,259900,2025-01-16,263000,3,1.5,1250,3877,Saint Paul,1120 Woodbridge St,55117,44.974926,-93.10814
2024-12-06,199900,2025-01-31,209000,4,1.5,1491,5009,Saint Paul,781 York Ave,55106,44.968745,-93.067427
2025-04-14,384900,2025-05-01,407500,2,2.0,1525,8015,Saint Paul,2152 Powers Ave,55119,44.942763,-93.009313
2025-03-27,500000,2025-05-15,510000,3,2.0,1655,4966,Saint Paul,1400 Eleanor Ave,55116,44.920376,-93.159575
,,2025-05-21,255000,4,2.0,1684,5009,Saint Paul,443 Charles Ave,55103,44.957826,-93.118891
2025-05-01,415000,2025-05-30,415000,3,1.5,1900,4008,Saint Paul,1764 Hague Ave,55104,44.945537,-93.175069
2025-02-25,305000,2025-04-10,320000,4,1.5,1435,5009,Saint Paul,889 Ivy Ave E,55106,44.981401,-93.062873
2024-10-31,699900,2024-12-13,690000,4,3.5,2732,6882,Saint Paul,1090 Palace Ave,55105,44.928563,-93.146153
2024-03-22,429900,2024-12-17,433911,5,2.0,2010,6839,Saint Paul,1933 Field Ave,55116,44.902778,-93.181833
,,2025-05-12,250000,2,2.0,1440,9453,Saint Paul,1815 Wilson Ave,55119,44.954339,-93.023693
2025-04-11,500000,2025-05-23,480000,4,1.5,1895,5968,Saint Paul,2089 Watson Ave,55116,44.924606,-93.188651
2025-04-17,245000,2025-06-03,245000,3,2.5,1545,4792,Saint Paul,934 Beech St,55106,44.961901,-93.061329
2024-09-30,1095000,2024-12-09,1100000,5,2.5,4142,11238,Saint Paul,1306 Bohland Pl,55116,44.915836,-93.155388
2024-11-25,489000,2025-01-03,465000,4,2.5,2116,4792,Saint Paul,1780 Hartford Ave,55116,44.923138,-93.175515
2024-12-03,310900,2025-04-02,305000,3,2.0,1210,7362,Saint Paul,1862 Maryland Ave E,55119,44.977247,-93.021831
2025-03-10,335000,2025-03-27,335000,3,1.5,1532,4966,Saint Paul,792 Howell St N,55104,44.964914,-93.180698
2024-10-23,360000,2025-04-24,350000,4,2.0,1523,4879,Saint Paul,978 Desoto St,55130,44.970729,-93.080816
2025-03-28,209900,2025-05-16,215000,4,1.5,1664,4051,Saint Paul,913 Sherburne Ave,55104,44.956892,-93.138576
2025-03-28,350000,2025-05-09,342000,3,1.5,1512,6098,Saint Paul,1857 Ford Pkwy,55116,44.918235,-93.178802
2025-03-21,369900,2025-05-09,369900,4,2.0,2028,10280,Saint Paul,1551 York Ave,55106,44.968979,-93.034837
2025-04-04,650000,2025-05-01,660000,4,2.0,2260,4879,Saint Paul,2161 Princeton Ave,55105,44.936381,-93.191666
2025-02-14,360000,2025-02-28,380000,2,1.0,1415,4966,Saint Paul,1296 Highland Pkwy,55116,44.91946,-93.155019
2025-01-28,235000,2025-02-26,252500,2,1.0,764,5097,Saint Paul,906 Young St,55104,44.968311,-93.173053
2025-01-09,324900,2025-02-26,341500,2,2.0,1340,4966,Saint Paul,559 Frontenac Pl,55104,44.957125,-93.205535
2025-03-19,249900,2025-04-30,250000,3,1.0,1183,3920,Saint Paul,1038 Argyle St,55103,44.972333,-93.142294
2024-12-03,140000,2025-01-17,125000,2,1.0,816,1481,Saint Paul,366 Hope St,55106,44.959303,-93.066418
2024-11-08,324900,2024-12-27,335500,3,1.0,1132,5968,Saint Paul,616 Saratoga St S,55116,44.922958,-93.164117
2025-01-15,275000,2025-02-18,286000,3,1.0,1470,5968,Saint Paul,814 Randolph Ave,55102,44.926585,-93.134376
2025-01-31,150000,2025-02-20,150000,4,1.0,1311,5009,Saint Paul,969 4th St E,55106,44.958801,-93.059655
2024-10-31,325000,2024-12-10,325000,2,1.0,939,4792,Saint Paul,2112 Scheffer Ave,55116,44.921351,-93.189577
2025-03-06,199900,2025-04-10,198000,3,1.0,1143,5401,Saint Paul,136 Lawson Ave E,55117,44.971708,-93.094816
2025-03-24,218500,2025-05-08,223000,3,1.0,1874,3964,Saint Paul,459 Milton St N,55104,44.955053,-93.139208
2025-03-20,215000,2025-05-05,212000,2,1.0,979,5097,Saint Paul,986 Carroll Ave,55104,44.950059,-93.142065
2024-11-07,250000,2025-01-07,255000,3,1.5,1859,3920,Saint Paul,1247 5th St E,55106,44.959768,-93.047731
2024-12-28,279900,2025-01-30,379000,3,2.0,1500,8843,Saint Paul,1721 Ivy Ave E,55106,44.981393,-93.027575
2024-10-17,795000,2024-12-09,795000,4,3.5,3988,5968,Saint Paul,902 Goodrich Ave,55105,44.937533,-93.138222
2024-10-08,300000,2025-02-13,300000,3,2.0,1483,4792,Saint Paul,1321 Arlington Ave W,55108,44.984871,-93.155868
2025-04-11,275000,2025-05-23,295000,3,2.0,1412,5227,Saint Paul,1012 Hubbard Ave,55104,44.965449,-93.142808
2025-04-01,240000,2025-05-12,272000,2,2.0,1056,4617,Saint Paul,34 Winona St W,55107,44.921145,-93.086795
2025-03-19,220000,2025-05-02,220000,4,1.5,1171,9975,Saint Paul,2087 Minnehaha Ave E,55119,44.963316,-93.012382
2025-04-09,499500,2025-05-13,525000,4,2.5,2787,23740,Saint Paul,1470 Victoria St N,55117,44.985753,-93.135974
,,2025-05-19,330000,3,1.5,1558,8002,Saint Paul,2210 Matterhorn Ln,55119,44.916888,-93.006898
2025-04-23,280000,2025-05-23,280000,4,2.0,1804,6490,Saint Paul,2512 Nokomis Ave,55119,44.9782,-93.008261
2025-01-06,170000,2025-03-03,158000,2,1.0,1051,4792,Saint Paul,1273 Margaret St,55106,44.961562,-93.046806
2024-08-29,1100000,2025-01-15,1015000,4,4.5,4963,9975,Saint Paul,780 Summit Ave,55105,44.940864,-93.132985
2025-05-02,299000,2025-05-19,299000,3,1.5,1644,5445,Saint Paul,1539 Edmund Ave,55104,44.958615,-93.165535
,,2025-05-20,220000,3,2.0,1320,,Saint Paul,796 Rondo Ave,55104,44.951075,-93.133866
2025-04-22,275000,2025-05-23,289000,4,2.0,1836,4792,Saint Paul,1369 Galtier St,55117,44.982254,-93.111298
2025-04-28,239900,2025-05-29,242000,3,2.0,1655,7405,Saint Paul,1067 Conway St,55106,44.95611,-93.05529
2025-03-26,169900,2025-05-16,163000,1,1.5,992,5924,Saint Paul,1683 Stillwater Ave,55106,44.968024,-93.029274
2025-04-05,274000,2025-05-30,300000,2,1.5,1412,10759,Saint Paul,1752 Margaret St,55106,44.961015,-93.026412
,,2025-05-15,330000,5,2.5,2292,11622,Saint Paul,317 Burlington Rd,55119,44.930297,-93.015052
2025-04-09,325000,2025-05-27,320000,4,2.0,1647,5053,Saint Paul,1400 Snelling Ave N,55108,44.983411,-93.166571
2025-03-06,260000,2025-05-01,285000,3,2.0,1728,8276,Saint Paul,1565 Clarence St,55106,44.988548,-93.043427
2024-11-01,219000,2025-01-10,219000,4,1.0,1419,6926,Saint Paul,1139 Minnehaha Ave E,55106,44.963335,-93.052348
2025-04-04,250000,2025-05-08,253750,2,1.0,1148,2744,Saint Paul,1055 Hatch Ave,55103,44.971557,-93.144692
2025-04-23,299900,2025-05-28,325000,3,2.0,1807,4792,Saint Paul,1059 Como Pl,55103,44.973068,-93.13473
2024-10-05,249000,2025-02-28,245000,2,1.0,784,5837,Saint Paul,421 Goodhue St,55102,44.936572,-93.117673
2025-02-11,685000,2025-03-26,670000,4,2.0,2842,7797,Saint Paul,1197 Edgcumbe Rd,55105,44.930227,-93.150632
2025-03-10,249900,2025-04-11,305000,2,1.0,690,6229,Saint Paul,861 Wilder St S,55116,44.915326,-93.185789
2025-03-18,274900,2025-04-22,255000,3,1.5,1300,10149,Saint Paul,998 Palace Ave,55102,44.928436,-93.142601
2024-12-07,285000,2025-02-20,280000,3,1.0,1022,8494,Saint Paul,453 Birmingham St,55106,44.955057,-93.039841
2025-04-09,314900,2025-05-30,312000,6,3.0,2195,6839,Saint Paul,834 Lake St,55119,44.966379,-93.006087
2025-04-18,235000,2025-05-30,242500,2,1.0,900,5227,Saint Paul,1023 Watson Ave,55102,44.924443,-93.143291
2025-04-09,250000,2025-05-30,250000,3,1.0,1200,4792,Saint Paul,665 Van Buren Ave,55104,44.962317,-93.128289
,,2025-05-23,140000,3,1.5,1624,18252,Saint Paul,2127 5th St E,55119,44.960015,-93.010824
2025-05-15,400000,2025-06-03,410000,3,1.0,1764,5793,Saint Paul,1931 Dorothea Ave,55116,44.905897,-93.181729
2025-03-19,699900,2025-06-03,688000,3,2.5,2601,5968,Saint Paul,845 Fairmount Ave,55105,44.937056,-93.135669
2025-04-28,249000,2025-05-30,260000,4,2.0,704,3703,Saint Paul,760 Edmund Ave,55104,44.958174,-93.13221
2025-04-23,224900,2025-05-30,224900,2,1.0,768,5619,Saint Paul,1924 Hoyt Ave E,55119,44.988093,-93.018904
2025-05-14,975000,2025-06-03,1000000,4,5.5,3516,7749,Saint Paul,1781 Hillcrest Ave,55116,44.917301,-93.175488
2025-04-04,240000,2025-05-09,255000,4,1.0,1432,4835,Saint Paul,745 Jessamine Ave E,55106,44.975042,-93.06902
,,2025-05-28,310000,3,2.0,1491,4961,Saint Paul,1365 Charles Ave,55104,44.957772,-93.157946
2025-04-23,265000,2025-05-27,285000,3,2.0,1368,8538,Saint Paul,1017 Stinson St,55103,44.969554,-93.142969
2025-03-21,280000,2025-05-16,285000,3,2.0,1900,7405,Saint Paul,1727 Euclid St,55106,44.95527,-93.027398
2025-04-09,180000,2025-05-08,170000,4,1.0,1149,7144,Saint Paul,100 Lawson Ave W,55117,44.971769,-93.104322
2025-04-09,280000,2025-05-30,270000,3,1.5,1255,4225,Saint Paul,572 Smith Ave S,55107,44.928685,-93.10157
2025-04-24,310000,2025-05-23,350000,3,2.0,1532,5097,Saint Paul,675 California Ave W,55117,44.991126,-93.128473
2025-04-29,374900,2025-06-05,374900,3,1.0,1150,5227,Saint Paul,1600 Bayard Ave,55116,44.922201,-93.167988
2025-04-28,550000,2025-06-06,550000,3,2.5,2091,6011,Saint Paul,2191 Dayton Ave,55104,44.947472,-93.193024
2025-04-29,325000,2025-06-02,335000,3,2.0,1820,7492,Saint Paul,472 Hall Ave,55107,44.931804,-93.08623
2025-04-29,285000,2025-06-06,300000,3,1.5,1329,5358,Saint Paul,1133 Seminary Ave,55104,44.965069,-93.148041
,,2025-05-29,1558900,4,3.0,2025,16988,Saint Paul,1919 Eleanor Ave,55116,44.92085,-93.1816
2025-04-01,365000,2025-05-28,360000,3,1.0,1266,4748,Saint Paul,1395 Palace Ave,55105,44.929038,-93.159051
2025-02-17,1495000,2025-04-10,1520000,4,5.0,5113,9845,Saint Paul,719 Linwood Ave,55105,44.935051,-93.130261
2025-01-28,239500,2025-03-26,255000,2,1.0,1085,6229,Saint Paul,528 Grace St,55102,44.932211,-93.122352
2025-05-02,349000,2025-06-06,335000,4,2.5,1623,4966,Saint Paul,818 Stewart Ave,55102,44.919829,-93.132107
,,2025-05-30,200000,3,1.5,1648,4966,Saint Paul,726 Thomas Ave,55104,44.959082,-93.130796
2025-03-25,400000,2025-03-25,386600,3,2.0,1690,6098,Saint Paul,2082 Juno Ave,55116,44.925901,-93.188392
2025-03-13,264900,2025-04-30,277000,3,1.0,1175,3920,Saint Paul,262 Curtice St E,55107,44.922819,-93.074942
2025-03-02,265000,2025-03-27,258015,3,2.0,1107,4792,Saint Paul,948 Watson Ave,55102,44.923934,-93.140258
2025-03-18,799900,2025-06-03,850000,4,3.5,3185,5227,Saint Paul,1325 Hartford Ave,55116,44.923595,-93.156177
2025-02-14,2145000,2025-06-06,1820000,7,5.5,9440,22825,Saint Paul,470 Mississippi River Blvd N,55104,44.954305,-93.205526
,,2025-04-09,293900,3,2.0,2300,11474,Saint Paul,5175 Bona Rd,55112,45.096501,-93.205334
,,2025-03-13,420000,3,2.5,3120,14157,Saint Paul,3749 Nature View Trl,55127,45.055452,-93.062926
2024-09-04,698900,2025-01-29,737830,3,2.0,1622,15899,Roseville,2042 Eldridge Ave W,55113,45.003611,-93.18621
2025-03-04,317750,2025-04-23,312000,3,2.0,1320,10149,Roseville,255 County Road C2 W,55113,45.028192,-93.110063
,,2025-03-20,240000,2,2.0,1864,17681,Saint Paul,436 Tanglewood Dr,55126,45.085968,-93.119171
,,2025-01-06,887468,3,3.0,2990,70576,Saint Paul,900 Kohlman Ln,55109,45.023181,-93.0617
2025-02-18,350000,2025-03-19,345000,3,2.0,1414,11631,Roseville,2945 Simpson St,55113,45.029794,-93.162935
,,2025-03-12,171832,4,1.5,1720,20081,Saint Paul,2105 Stillwater St,55110,45.098464,-93.011902
,,2025-03-17,610000,4,3.5,3193,19646,Saint Paul,427 Oak Creek Dr S,55127,45.051374,-93.082812
2024-05-20,1261919,2025-01-02,1298001,4,3.0,3061,53622,Hugo,12111 121st Ct N,55110,45.126852,-93.00503
,,2025-01-24,380000,3,3.0,2102,15298,Saint Paul,741 Terrace Dr,55113,45.023009,-93.131731
2025-03-29,869867,2025-04-07,869866,5,3.5,3192,15638,Shoreview,4858 Hanson Rd,55126,45.087996,-93.141789
,,2024-12-10,340000,3,1.0,1462,10202,Saint Paul,2670 Mayer Ln E,55119,44.944374,-92.987469
,,2025-02-07,375000,3,2.5,1930,12001,Saint Paul,5505 Cottage Ave,55110,45.107702,-93.033062
2024-10-31,380000,2024-12-13,376000,3,3.0,1888,12066,White Bear Township,5210 Elk St,55110,45.098837,-93.007968
,,2025-01-15,482000,4,2.0,2025,16074,Saint Paul,4299 Virginia Ave,55126,45.071339,-93.116308
2025-01-10,275000,2025-02-14,295000,4,2.0,1788,9888,White Bear Lake,3400 Emerald Dr,55110,45.044464,-93.003746
2024-10-01,484900,2025-01-10,467500,4,2.5,2464,15246,Shoreview,4894 Maple St,55126,45.089142,-93.13051
,,2025-03-20,540000,2,2.0,2132,10001,Saint Paul,2789 Churchill St,55113,45.024816,-93.145836
,,2025-01-21,334500,4,2.0,1854,11021,Saint Paul,540 County Road D E,55117,45.035379,-93.078297
2025-01-27,624900,2025-03-07,640000,5,3.5,3186,13024,Shoreview,5815 Oxford St N,55126,45.11701,-93.144673
2024-11-21,260000,2024-12-30,265000,3,1.0,1437,64469,Gem Lake,4106 Scheuneman Rd,55110,45.06539,-93.029443
2024-10-22,450000,2025-01-02,405000,3,3.0,2340,22651,Arden Hills,1201 Ingerson Rd,55112,45.041061,-93.151025
,,2025-05-21,185000,3,2.0,1844,16147,Saint Paul,4040 Scheuneman Rd,55110,45.062943,-93.029722
,,2025-05-06,140000,3,1.0,876,11552,Saint Paul,563 Doris Ave,55126,45.123413,-93.124984
2025-01-29,393900,2025-02-28,384000,5,2.0,2109,10019,Little Canada,2549 Stark St,55117,45.018107,-93.099638
,,2025-05-07,338000,4,2.0,1940,10799,Saint Paul,4953 Georgia Ln,55110,45.091211,-93.022809
2025-03-17,690000,2025-05-05,650000,3,2.0,2400,17685,New Brighton,2158 Lakebrook Dr,55112,45.083619,-93.203596
2024-08-23,554990,2025-03-20,551701,4,3.5,2402,14375,Woodbury,5169 Mustang Dr,55129,44.873616,-92.940047
2025-04-08,415000,2025-05-16,405000,3,2.0,1784,10280,Roseville,1410 Skillman Ave W,55113,45.002385,-93.159646
2025-03-24,225000,2025-05-23,225000,2,2.0,908,9801,Maplewood,1721 Gurney St N,55117,44.993003,-93.100741
,,2025-05-15,425000,3,2.5,1635,12149,Saint Paul,1485 Gervais Ave,55109,45.013938,-93.037481
2025-02-25,395000,2025-05-08,405000,3,2.0,1885,10629,White Bear Lake,3970 Hazel St N,55110,45.061361,-93.00991
2024-12-12,429900,2025-02-27,421500,4,2.0,1920,10367,Shoreview,4765 Kent St,55126,45.085337,-93.125465
2025-04-03,400000,2025-05-06,410000,4,2.0,2402,12807,Eagan,2298 Clark St,55122,44.79814,-93.227563
,,2025-05-27,190000,3,2.0,974,10799,Saint Paul,3796 McKnight Rd N,55110,45.056085,-93.004762
,,2025-05-21,288000,3,2.0,1852,15120,Saint Paul,719 Grandview Ave W,55113,45.012781,-93.130483
2025-04-08,799900,2025-05-12,815000,4,3.5,3843,57935,North Oaks,14 Hill Farm Cir,55127,45.091986,-93.11376
,,2025-05-23,275000,3,2.0,1638,9679,Saint Paul,816 Grandview Ave W,55113,45.012329,-93.134564
2024-10-24,700000,2024-12-20,505000,4,3.0,3823,65340,North Oaks,23 Pheasant Ln,55127,45.092801,-93.077052
2025-01-08,420000,2025-02-28,437000,4,2.0,2139,16771,Woodbury,6689 Stratford Alcove,55125,44.902556,-92.971086
2024-08-09,789000,2025-04-18,672500,6,3.5,6458,47306,Woodbury,694 Meadow Ln,55125,44.939443,-92.980525
2025-02-03,424999,2025-03-11,436000,3,2.5,2145,12023,Woodbury,3431 Oxford Dr,55125,44.899007,-92.958303
2025-02-14,624900,2025-05-08,625000,4,2.5,2408,12502,Woodbury,11285 Ivywood Trl,55129,44.900013,-92.877009
2024-10-31,1495000,2025-04-30,1500000,5,5.5,7567,23261,Woodbury,3721 Fairway Pt,55125,44.894012,-92.920026
2024-08-19,374000,2025-03-07,368500,4,2.0,1869,9104,Woodbury,1417 Woodhill Dr,55125,44.928492,-92.976198
2025-02-18,425000,2025-04-04,425000,4,2.5,1984,12240,Woodbury,1308 Woodhill Cir,55125,44.92994,-92.977731
2025-03-07,399000,2025-04-30,380000,3,1.0,1442,15246,Mahtomedi,840 Mahtomedi Ave,55115,45.065494,-92.957249
2025-03-03,585000,2025-04-07,590000,3,2.5,3222,15682,Woodbury,2467 Lone Eagle Trl,55129,44.914331,-92.895245
2025-03-12,659000,2025-03-31,660000,5,3.5,3961,18731,Woodbury,8187 Boulder Ridge Rd,55125,44.914813,-92.940151
2025-01-02,475000,2025-03-24,475000,4,2.5,3363,11456,Woodbury,896 Moonlight Dr,55125,44.935084,-92.914987
2025-01-15,479990,2025-02-28,455000,4,2.5,2166,9583,Woodbury,4900 Airlake Dr,55129,44.879046,-92.896115
2024-12-14,959000,2025-02-28,925000,5,4.5,4225,10803,Woodbury,9599 Iron Horse Rd,55129,44.878795,-92.909904
2025-01-30,475000,2025-03-03,505000,3,2.0,2003,12632,Mahtomedi,161 Juniper St,55115,45.068671,-92.953678
2025-03-07,485000,2025-05-08,480000,4,2.5,2300,10672,Woodbury,3574 Tara Ln,55125,44.897022,-92.957741
2025-03-05,390000,2025-04-14,410000,2,2.0,1730,10106,Woodbury,3425 White Oaks Ln,55125,44.898722,-92.952253
2024-07-15,1325900,2025-02-28,1300000,7,4.5,7300,10585,Woodbury,10998 Sweetwater Path,55129,44.923567,-92.882855
2025-03-25,549900,2025-04-23,577000,4,2.5,2829,20430,Woodbury,9000 Highland Cir,55125,44.916246,-92.92385
2025-03-20,335000,2025-04-30,350000,3,3.0,,10106,Woodbury,6148 Garbe Ave,55125,44.941908,-92.982148
,,2025-03-31,300000,2,2.0,1176,14070,Saint Paul,1456 Burke Ave W,55113,45.005144,-93.161488
,,2025-04-03,270000,3,2.0,1830,12014,Saint Paul,105 Suzanne Ave,55127,45.062322,-93.104939
2025-03-03,1750000,2025-04-18,1700000,5,4.5,5354,84942,North Oaks,2 Brainard Way,55127,45.095183,-93.117751
,,2025-02-04,211500,3,2.5,1906,44997,Saint Paul,2359 Edgerton St,55117,45.012342,-93.07738
,,2025-02-28,375000,3,2.0,1510,10559,Saint Paul,2323 Londin Ln E,55119,44.930559,-93.001948
2025-01-18,349900,2025-03-28,350000,4,1.5,1521,10106,Roseville,2579 Charlotte St,55113,45.018743,-93.171113
2025-02-18,290000,2025-03-14,290000,2,1.0,905,10367,Mounds View,7493 Groveland Rd,55112,45.103733,-93.220672
,,2025-01-16,330000,3,2.0,1746,80185,Saint Paul,5000 Otter Lake Rd,55110,45.092732,-93.034713
,,2024-12-17,391000,3,2.0,1143,5641,Saint Paul,2351 8th St,55110,45.089778,-93.001165
2025-03-14,381000,2025-04-22,381000,4,2.0,2054,10411,Shoreview,184 Hawes Ave,55126,45.0677,-93.108314
2025-02-14,370000,2025-03-14,400000,4,3.0,2415,14767,Shoreview,5869 Ridge Creek Rd,55126,45.118542,-93.161282
2025-02-05,335000,2025-03-05,344500,3,2.0,1625,13199,White Bear Lake,3825 Saint Regis Dr,55110,45.056944,-93.00393
,,2024-12-19,591706,3,2.0,1752,13965,Saint Paul,2540 Edgerton St,55117,45.017188,-93.076251
2025-01-30,290000,2025-02-21,285000,3,2.0,1627,11979,Mounds View,2601 Sherwood Rd,55112,45.11551,-93.211394
,,2024-12-19,350000,1,1.0,1363,10319,Saint Paul,1438 Skillman Ave W,55113,45.002372,-93.160837
,,2024-12-23,1600000,2,2.0,2604,40249,Saint Paul,2375 S Shore Blvd,55110,45.06955,-93.000255
2024-12-10,240000,2025-01-29,250000,3,1.0,1124,9583,White Bear Lake,4565 1st Ave,55110,45.079752,-93.017817
,,2024-12-17,250000,3,1.0,1240,22638,Saint Paul,5311 Anderlie Ln,55110,45.101913,-93.027471
,,2025-03-27,350000,2,1.0,1502,41034,Saint Paul,4020 Scheuneman Rd,55110,45.062664,-93.030435
,,2025-02-26,405000,3,2.0,1704,11195,Saint Paul,2585 Cohansey St,55113,45.019076,-93.1196
2024-07-10,2420000,2025-03-06,2423844,4,4.5,6371,129809,North Oaks,12 Sherwood Trl,55126,45.118075,-93.092274
,,2024-12-12,402547,3,2.5,1740,15625,Saint Paul,345 Colleen Dr,55127,45.061019,-93.08629
,,2024-12-17,300000,3,2.0,1282,11522,Saint Paul,5200 Oconnell Dr,55112,45.097399,-93.199705
2024-12-05,310000,2025-01-30,286000,3,1.0,1638,10846,Roseville,1187 Roma Ave,55113,44.994866,-93.150079
2025-01-16,400000,2025-02-28,412000,4,2.0,2416,12632,Maplewood,2221 Burr St N,55117,45.008034,-93.080414
2024-12-31,319900,2025-02-03,320000,3,2.0,1348,13591,Mounds View,5353 Jackson Dr,55112,45.102942,-93.19915
,,2025-05-12,315000,3,2.0,1746,8398,Saint Paul,800 Roselawn Ave E,55117,44.998914,-93.067024
2025-02-13,700000,2025-03-31,706000,5,2.5,3382,12197,Woodbury,1347 Clearwater Dr,55129,44.929113,-92.887777
2024-12-31,569990,2025-04-22,560810,4,3.5,2402,10454,Woodbury,5175 Mustang Ct,55129,44.873787,-92.939038
2024-11-15,415000,2025-04-16,405000,3,2.0,1656,13983,Shoreview,4585 Galtier St,55126,45.078188,-93.112113
,,2025-05-16,460000,3,3.5,2368,28401,Saint Paul,1026 Woodlynn Ave,55113,45.034583,-93.143753
2025-04-17,300000,2025-06-06,300000,3,1.0,1677,14810,Maplewood,1866 Beaumont St N,55117,44.997475,-93.097787
2025-03-20,599900,2025-04-28,575000,5,3.5,3606,12545,Woodbury,3440 Oxford Cir,55125,44.898648,-92.959292
2024-09-09,650000,2025-03-26,640000,4,3.5,3670,12371,Woodbury,11489 Riverstone Trl,55129,44.927414,-92.873368
2025-03-01,599900,2025-05-02,617000,5,3.5,3801,11413,Woodbury,3927 Bailey Ridge Dr,55125,44.892146,-92.930957
2025-03-20,499000,2025-05-01,536000,5,3.0,2777,26920,Mahtomedi,1424 Hallam Ave N,55115,45.074552,-92.949232
2025-01-31,390000,2025-05-08,380000,4,2.0,2100,10977,Woodbury,6616 Stratford Rd,55125,44.903943,-92.971858
2024-11-14,425000,2025-03-21,428000,4,2.5,1950,13504,Woodbury,1832 Richal Dr,55125,44.922112,-92.956339
2025-02-27,425000,2025-04-04,440000,4,3.0,1938,10934,Woodbury,3563 Oxford Dr,55125,44.896816,-92.958248
2025-03-04,888000,2025-04-17,835000,6,4.5,4567,23827,Woodbury,11572 Ivywood Bay,55129,44.901392,-92.871852
