list_date,list_price,sold_date,sold_price,beds,baths,sqft,lot_sqft,city,street,zip,latitude,longitude
2025-01-31,209900,2025-03-31,209900,2,1.5,904,4704,Saint Paul,868 Algonquin Ave,55119,44.967562,-93.017718
2024-11-15,374900,2024-12-13,391000,3,1.5,1534,4966,Saint Paul,1246 Bayard Ave,55116,44.922167,-93.152861
2024-12-20,275000,2025-01-10,266800,3,1,1297,6534,Saint Paul,967 California Ave W,55117,44.991249,-93.140914
2025-01-23,500000,2025-02-28,505003,3,2,1636,5009,Saint Paul,2098 Pinehurst Ave,55116,44.918628,-93.189055
2025-03-18,425000,2025-04-08,475000,4,1,1750,7362,Saint Paul,2129 Sargent Ave,55105,44.935472,-93.190323
2024-09-03,189900,2024-12-11,189900,2,1,832,4792,Saint Paul,536 Edmund Ave,55103,44.958192,-93.122838
2024-12-01,324900,2025-01-31,325000,3,1.5,2185,6055,Saint Paul,627-629 Minnehaha Ave E,55130,44.963264,-93.074138
2024-11-19,214900,2025-01-09,210000,2,1,926,5001,Saint Paul,1631 Woodbridge St,55117,44.990397,-93.108765
2024-11-25,375000,2025-01-03,365000,3,2.5,1435,5227,Saint Paul,1659 Fernwood St,55108,44.991212,-93.151727
2024-10-18,279000,2025-01-07,279000,3,2,1488,4879,Saint Paul,916 Ivy Ave E,55106,44.980881,-93.061875
2025-03-20,319900,2025-04-18,310000,4,2,1643,5358,Saint Paul,1517 Dale St N,55117,44.986988,-93.126544
2024-10-04,259900,2025-01-10,260000,3,2,1141,6186,Saint Paul,46 Orange Ave W,55117,44.979017,-93.102185
2025-01-25,264900,2025-02-28,285000,2,1,1138,7841,Saint Paul,994 Chatsworth St N,55103,44.971162,-93.141206
2024-10-24,585000,2024-12-12,575000,5,2.5,3945,10629,Saint Paul,1893 Marshall Ave,55104,44.948731,-93.18017
2025-04-15,525000,2025-04-29,575000,3,2,2593,5401,Saint Paul,2103 Hartford Ave,55116,44.92368,-93.189167
2025-01-02,429900,2025-02-28,429900,3,2,1761,6098,Saint Paul,639 Pascal St S,55116,44.922181,-93.162293
,,2025-04-21,57000,2,1,1029,6360,Saint Paul,1021 Minnehaha Ave E,55106,44.963315,-93.057443
2025-04-03,225000,2025-05-07,225000,2,1,885,5009,Saint Paul,928 Lawson Ave E,55106,44.971864,-93.061378
2025-04-18,289900,2025-05-12,296000,3,1,1400,6665,Saint Paul,1531 Alameda St,55117,44.987229,-93.130339
,,2025-01-27,200000,3,1,2000,7579,Saint Paul,1726 Iowa Ave E,55106,44.988994,-93.027323
2025-02-18,825000,2025-03-31,825000,6,3.5,3113,6403,Saint Paul,496 Marshall Ave,55102,44.948277,-93.121098
2024-11-11,165000,2025-01-17,165000,2,1,768,4400,Saint Paul,1166 Jackson St,55117,44.976258,-93.096047
,,2025-01-10,267500,3,1,978,5192,Saint Paul,779 Fry St,55104,44.964602,-93.169975
2024-10-11,240000,2024-12-16,260000,4,2,1830,6621,Saint Paul,401 Johnson Pkwy,55106,44.954149,-93.049324
,,2025-03-24,110900,2,1,1307,4918,Saint Paul,1130 Beech St,55106,44.961914,-93.052668
2024-10-10,293000,2024-12-11,287000,3,1,1340,5184,Saint Paul,1362 Stanford Ave,55105,44.932157,-93.157814
2025-02-13,489900,2025-03-31,532000,3,2,1795,5580,Saint Paul,1469 Osceola Ave,55105,44.936343,-93.162341
2024-10-28,550000,2024-12-17,563000,3,3,3404,12824,Saint Paul,860 Ivy Ave W,55117,44.980805,-93.136377
2024-07-26,219999,2024-12-11,220000,3,1,1321,4922,Saint Paul,691 Edmund Ave,55104,44.958697,-93.129405
2024-11-13,475000,2025-01-21,475000,3,2,1507,4356,Saint Paul,1126 Edgcumbe Rd,55105,44.930251,-93.147762
,,2025-02-03,251250,3,2,1504,4961,Saint Paul,1866 Hyacinth Ave E,55119,44.979952,-93.021618
2024-11-04,549000,2024-12-17,549000,2,2,1795,8973,Saint Paul,2150 Niles Ave,55116,44.924982,-93.191331
2025-01-15,200000,2025-01-31,200000,3,1,1236,4574,Saint Paul,862 Smith Ave S,55107,44.92015,-93.101468
2025-02-03,275000,2025-03-07,315000,4,1.5,1897,7841,Saint Paul,2139 Cottage Ave E,55119,44.983195,-93.010337
2025-01-09,285000,2025-02-27,290000,3,1,1251,6970,Saint Paul,2149 Fremont Ave E,55119,44.957893,-93.009827
2024-09-26,249900,2024-12-06,260000,3,1,1365,5227,Saint Paul,682 Cottage Ave E,55106,44.982603,-93.071865
,,2025-03-31,145000,2,1.5,1120,6835,Saint Paul,555 Arlington Ave W,55117,44.984738,-93.123289
,,2025-05-07,334900,3,1,1312,4800,Saint Paul,2210 Saint Anthony Ave,55104,44.956105,-93.195011
2024-10-22,250000,2024-12-31,255500,5,2,1954,3093,Saint Paul,415 Mount Ida St,55130,44.962476,-93.083099
,,2024-12-19,210000,4,2,1995,7754,Saint Paul,1181 Raymond Ave,55108,44.976875,-93.190845
2024-11-19,419500,2025-01-07,410000,3,2,2708,9888,Saint Paul,1311 Van Buren Ave,55104,44.9623,-93.155623
,,2025-03-04,187540,4,1,1080,3101,Saint Paul,939 Woodbridge St,55117,44.969619,-93.10886
2025-02-03,259900,2025-03-21,226000,3,1,1702,5227,Saint Paul,1935 Cottage Ave E,55119,44.983178,-93.018649
,,2024-12-30,260000,2,1,1456,7562,Saint Paul,849 Ivy Ave E,55106,44.981397,-93.064605
2025-03-08,509900,2025-04-24,485000,4,1.5,2360,6229,Saint Paul,1154 Ivy Ave E,55106,44.980697,-93.052195
2024-07-12,1350000,2025-01-17,1266455,5,4.5+,5991,24916,Saint Paul,1027 Summit Ave,55105,44.941908,-93.143428
2025-01-22,389900,2025-02-21,375000,2,1.5,1048,7449,Saint Paul,1802 Lincoln Ave,55105,44.938815,-93.176476
2024-06-03,329900,2025-01-20,329900,3,3,1248,4639,Saint Paul,852 James Ave,55102,44.927482,-93.136055
2024-12-30,539900,2025-02-28,595000,4,2.5,1775,4356,Saint Paul,1186 Hague Ave,55104,44.945576,-93.150369
2024-10-19,345000,2025-03-03,347000,3,1,1506,6534,Saint Paul,565 Frontenac Pl,55104,44.957213,-93.205666
2024-11-06,1075000,2025-03-17,1060000,4,3.5,3565,4835,Saint Paul,1439 Eleanor Ave,55116,,
2025-01-20,334900,2025-03-03,334900,3,2,2075,4879,Saint Paul,1132 Edmund Ave,55104,44.958188,-93.148082
2024-12-16,1200000,2025-01-03,1200000,6,5,5955,8843,Saint Paul,916 Lincoln Ave,55105,44.93859,-93.138734
2025-02-16,269900,2025-03-27,269900,3,2.5,1726,5576,Saint Paul,718 Bellows St,55107,44.924359,-93.092332
2025-02-11,199000,2025-03-20,220000,2,1,900,7187,Saint Paul,1732 Beech St,55106,44.96195,-93.02717
2025-02-14,189900,2025-04-02,200000,2,1,1104,4879,Saint Paul,1160 Beech St,55106,44.961921,-93.051583
,,2025-04-25,245000,3,1,1188,5279,Saint Paul,786 Iglehart Ave,55104,44.949231,-93.13355
2025-03-12,340000,2025-04-04,378500,3,2,2062,3920,Saint Paul,1168 Lexington Pkwy N,55103,44.976473,-93.146104
2024-11-14,199900,2025-02-07,190000,3,2,1078,9757,Saint Paul,732 Burr St,55130,44.963353,-93.079547
,,2025-01-07,210000,3,1.5,1837,5959,Saint Paul,1033 Wakefield Ave,55106,44.953436,-93.056869
,,2025-01-02,389000,4,3,2050,9361,Saint Paul,1427 McAfee St,55106,44.984262,-93.044811
2024-11-04,315000,2025-03-17,325000,3,2,1353,9601,Saint Paul,149 Wyoming St E,55107,44.920673,-93.078969
2024-12-13,289900,2025-01-27,284000,3,2,2067,4835,Saint Paul,1636 W Breda Ave,55108,44.976139,-93.169315
,,2024-12-30,336000,3,1.5+,1650,7745,Saint Paul,1264 Jessie St,55130,44.979349,-93.077004
2025-01-17,375000,2025-02-26,391000,3,2.5,1666,6098,Saint Paul,1807 Montreal Ave,55116,44.912807,-93.176427
2025-01-24,214900,2025-03-03,221400,2,1,878,4704,Saint Paul,1236 Albemarle St,55117,44.97841,-93.106851
,,2025-02-19,42500,3,2,1410,7379,Saint Paul,984 Fremont Ave,55106,44.957396,-93.059053
2024-09-24,124995,2024-12-20,115000,2,1,908,4966,Saint Paul,450 Forest St,55106,44.955196,-93.060687
2024-10-18,350000,2024-12-05,348500,3,2,1788,4530,Saint Paul,804 Manomin Ave,55107,44.921897,-93.100275
2024-10-29,250000,2024-12-13,248000,4,2,1655,4661,Saint Paul,663 Jefferson Ave,55102,44.930907,-93.127672
,,2024-12-18,275000,3,2,1360,8542,Saint Paul,1607 Margaret St,55106,44.961581,-93.032501
2024-09-19,284900,2025-01-03,275000,4,2,1433,4400,Saint Paul,984 Jackson St,55117,44.970805,-93.09603
2024-10-10,289900,2025-01-16,289900,3,1,1646,5881,Saint Paul,564 Larpenteur Ave E,55117,44.9917,-93.076888
2025-02-20,425000,2025-04-01,422500,3,2,1500,4966,Saint Paul,1282 Jefferson Ave,55105,44.930301,-93.15447
2024-09-13,275000,2024-12-06,276000,3,2,1665,8756,Saint Paul,518 Idaho Ave E,55130,44.989797,-93.078936
2024-11-27,225000,2024-12-30,226500,2,1,872,6839,Saint Paul,2102 4th St E,55119,44.958275,-93.011803
2024-12-05,325000,2025-01-08,330000,3,1,1367,6708,Saint Paul,1820 Englewood Ave,55104,44.963509,-93.177611
,,2025-01-08,112000,2,2,1596,4966,Saint Paul,659 Edmund Ave,55104,44.958695,-93.12796
2025-02-18,382500,2025-03-31,382500,3,1.5,1568,6098,Saint Paul,1934 Dorothea Ave,55116,44.90543,-93.181659
2024-10-08,255000,2025-01-24,237000,3,2,2010,7362,Saint Paul,1261 Beech St,55106,44.962455,-93.047243
2024-11-28,290000,2025-01-10,302500,3,2,1697,7100,Saint Paul,410 Hoyt Ave E,55130,44.987945,-93.083217
2025-03-26,225000,2025-04-30,250000,3,1,1005,10149,Saint Paul,1734 Bush Ave,55106,44.964669,-93.027126
2024-10-11,339500,2025-03-06,330000,5,1.5,1893,5358,Saint Paul,1699 Thomas Ave,55104,44.959531,-93.171906
2025-01-07,285000,2025-03-06,295000,2,2,1176,7536,Saint Paul,1067 Argyle St,55103,44.97325,-93.143075
,,2025-03-10,310000,7,3,2860,,Saint Paul,693 Saint Albans St N,55104,44.962318,-93.129107
2025-02-15,445000,2025-04-03,480022,4,3,2112,4792,Saint Paul,855 Tuscarora Ave,55102,44.92353,-93.136083
,,2024-12-11,475000,3,1.5,2840,5001,Saint Paul,1791 Bayard Ave,55116,44.92274,-93.175824
,,2024-12-12,220000,3,1,1056,5009,Saint Paul,803 Case Ave,55106,44.970559,-93.066649
2024-10-03,240000,2025-02-12,247200,3,1,1500,5053,Saint Paul,2129 Reaney Ave E,55119,44.964217,-93.010764
2025-02-08,225000,2025-03-14,245000,3,1,1407,8276,Saint Paul,2095 Jessamine Ave E,55119,44.974526,-93.011739
2025-02-16,1095000,2025-02-14,1095000,4,2.5+,3678,6839,Saint Paul,2247 Riverwood Pl,55104,44.944948,-93.195004
,,2025-03-12,127500,4,2,1645,5001,Saint Paul,487 Sherburne Ave,55103,44.956922,-93.120581
,,2024-12-04,240500,3,1,1564,2570,Saint Paul,237 Forbes Ave,55102,44.940293,-93.110075
2024-12-02,509900,2025-01-15,510000,4,2.5,2205,7797,Saint Paul,2029 Morgan Ave,55116,44.9047,-93.185762
2025-02-11,595000,2025-02-27,651000,5,2.5,2700,5793,Saint Paul,495 Cretin Ave S,55116,44.926595,-93.192821
2024-11-15,310000,2024-12-16,315000,4,2,1809,4922,Saint Paul,1987 Maryland Ave E,55119,44.977756,-93.016432
2024-12-03,130000,2025-01-09,113000,2,1,1160,2474,Saint Paul,912 Farrington St,55117,44.968716,-93.113266
2024-10-17,565000,2025-03-21,555000,5,3,2733,5227,Saint Paul,552 Brimhall St,55116,44.924801,-93.165368
,,2025-04-16,130000,3,1,1176,4961,Saint Paul,1258 Blair Ave,55104,44.960892,-93.153305
2025-03-06,650000,2025-04-09,680000,3,2.5,2266,6229,Saint Paul,1971 Bayard Ave,55116,44.92233,-93.183636
2024-10-03,285000,2024-12-31,280000,3,1,1418,10019,Saint Paul,663 Idaho Ave E,55106,44.990375,-93.072565
2024-11-14,165000,2024-12-18,180000,3,1,997,4922,Saint Paul,1378 Lafond Ave,55104,44.95996,-93.158406
,,2025-04-29,267000,3,2,1504,6011,Saint Paul,986 Germain Ct,55106,44.971254,-93.032859
2024-10-21,619000,2025-02-26,590000,5,3,2601,4792,Saint Paul,1133 Palace Ave,55105,44.929007,-93.147987
2025-02-22,449900,2025-04-10,470000,3,2,1642,5968,Saint Paul,884 Ashland Ave,55104,44.943625,-93.137483
,,2025-04-29,264000,3,1,998,6055,Saint Paul,1691 4th St E,55106,44.958842,-93.029067
2025-02-20,349900,2025-04-04,350000,3,1,1386,6970,Saint Paul,1131 Norbert Ln,55116,44.907666,-93.182033
2024-10-16,237000,2025-02-14,237000,3,2,1200,4792,Saint Paul,984 Cook Ave E,55106,44.972759,-93.058994
,,2025-04-17,159900,3,1.5,1047,5001,Saint Paul,782 Cook Ave E,55106,44.972737,-93.067406
2024-11-15,465000,2024-12-20,465000,4,2.5,2284,9191,Saint Paul,117 Elizabeth St W,55107,44.927367,-93.090412
2024-09-20,309900,2024-12-23,273000,6,3,2374,7144,Saint Paul,234 Kennard St,55106,44.946925,-93.029886
2025-02-14,679000,2025-04-15,692580,4,4,3556,4792,Saint Paul,397 Ashland Ave,55102,44.944575,-93.116781
,,2025-05-06,497500,5,4,2810,15000,Saint Paul,2032 Oakridge St,55119,44.921609,-93.014514
2025-03-15,209900,2025-04-29,216500,3,1,1280,5053,Saint Paul,702 Rose Ave E,55106,44.976316,-93.070799
,,2025-01-27,176415,3,2,1381,5227,Saint Paul,1934 Stillwater Ave E,55119,44.968031,-93.01857
2024-11-19,220000,2025-01-08,221000,2,1,1560,7492,Saint Paul,2056 Magnolia Ave E,55119,44.972963,-93.013565
2024-10-31,389900,2024-12-10,389900,3,2,2005,5227,Saint Paul,1591 Huron St,55108,44.989143,-93.155659
2025-01-22,298950,2025-02-28,310000,3,2,1736,5184,Saint Paul,344 Page St E,55107,44.924588,-93.070872
2025-03-07,315000,2025-04-18,330000,4,2.5,2336,5053,Saint Paul,277 Winifred St E,55107,44.930319,-93.072462
,,2025-02-04,325000,3,2,1008,16065,Saint Paul,1305 Maryland Ave E,55106,44.977789,-93.045128
2024-11-19,220000,2025-01-08,221000,2,1,1560,7492,Saint Paul,2056 Magnolia Ave E,55119,44.972963,-93.013565
2025-01-22,298950,2025-02-28,310000,3,2,1736,5184,Saint Paul,344 Page St E,55107,44.924588,-93.070872
2025-01-14,325000,2025-02-19,335000,3,2,1400,6229,Saint Paul,222 Congress St W,55107,44.931972,-93.094911
2024-12-18,235000,2025-01-17,270000,4,1,1483,6142,Saint Paul,1098 Margaret St,55106,44.961008,-93.0541
2024-10-17,199900,2024-12-20,206000,3,1,1357,5881,Saint Paul,1609 7th St E,55106,44.966998,-93.032407
2024-10-31,389900,2024-12-10,389900,3,2,2005,5227,Saint Paul,1591 Huron St,55108,44.989143,-93.155659
2024-12-11,229900,2025-01-21,230000,2,1,1128,6360,Saint Paul,2067 Fremont Ave E,55119,44.95789,-93.013125
2025-01-30,324800,2025-03-10,340000,3,2,1565,5750,Saint Paul,567 Pelham Blvd,55104,44.957677,-93.200585
2025-03-07,315000,2025-04-18,330000,4,2.5,2336,5053,Saint Paul,277 Winifred St E,55107,44.930319,-93.072462
,,2025-02-04,325000,3,2,1008,16065,Saint Paul,1305 Maryland Ave E,55106,44.977789,-93.045128
2024-08-22,945000,2025-03-13,915000,6,3.5+,4538,15594,Saint Paul,794 Linwood Ave,55105,44.934415,-93.133525
,,2025-02-13,139000,3,1,862,5097,Saint Paul,1299 Marion St,55117,44.980307,-93.110095
2025-03-19,350000,2025-05-09,420000,2,2,1478,22433,Saint Paul,604 Lexington Pkwy S,55116,44.923217,-93.14592
2025-01-17,250000,2025-03-21,250000,4,1.5,1885,4792,Saint Paul,1048 Conway St,55106,44.955605,-93.05628
2025-02-18,265000,2025-03-28,285000,3,1.5,1183,3659,Saint Paul,1415 Taylor Ave W,55104,44.967977,-93.160031
,,2025-05-06,497500,5,4,2810,15000,Saint Paul,2032 Oakridge St,55119,44.921609,-93.014514
2025-01-14,500000,2025-02-20,550000,3,2,2047,6098,Saint Paul,1132 Montana Ave W,55108,44.987206,-93.147689
2024-10-21,599900,2024-12-06,600000,4,2.5,2338,7841,Saint Paul,1924 Pinehurst Ave,55116,44.91862,-93.181599
2024-09-18,190000,2024-12-11,183000,2,1,708,5009,Saint Paul,1992 Clear Ave E,55119,44.981769,-93.016256
2025-01-29,350000,2025-03-04,385900,2,1.5,1611,7536,Saint Paul,1677 Montreal Ave,55116,44.912802,-93.170963
2025-03-11,550000,2025-04-15,600000,4,2.5,2150,7579,Saint Paul,1684 Watson Ave,55116,44.924027,-93.171344
,,2024-12-20,196000,5,1,1618,12589,Saint Paul,184 Page St W,55107,44.924355,-93.093339
2025-02-11,595000,2025-02-27,651000,5,2.5,2700,5793,Saint Paul,495 Cretin Ave S,55116,44.926595,-93.192821
2024-10-26,325000,2025-01-31,325000,3,2,1538,5489,Saint Paul,403 Arlington Ave W,55117,44.984844,-93.116941
,,2025-01-27,176415,3,2,1381,5227,Saint Paul,1934 Stillwater Ave E,55119,44.968031,-93.01857
,,2025-01-08,250000,3,1,900,6499,Saint Paul,1265 Folsom St,55117,44.979321,-93.133074
2025-01-31,355000,2025-03-31,363000,2,2,2050,18644,Saint Paul,2184 Bonnie Ln,55119,44.90463,-93.007994
2024-10-21,619000,2025-02-26,590000,5,3,2601,4792,Saint Paul,1133 Palace Ave,55105,44.929007,-93.147987
2024-11-15,465000,2024-12-20,465000,4,2.5,2284,9191,Saint Paul,117 Elizabeth St W,55107,44.927367,-93.090412
2025-02-14,679000,2025-04-15,692580,4,4,3556,4792,Saint Paul,397 Ashland Ave,55102,44.944575,-93.116781
2024-09-20,309900,2024-12-23,273000,6,3,2374,7144,Saint Paul,234 Kennard St,55106,44.946925,-93.029886
2025-02-20,244900,2025-04-15,245000,2,1,680,5227,Saint Paul,1830 Nebraska Ave E,55119,44.986274,-93.02308
,,2025-04-29,264000,3,1,998,6055,Saint Paul,1691 4th St E,55106,44.958842,-93.029067
2025-02-22,449900,2025-04-10,470000,3,2,1642,5968,Saint Paul,884 Ashland Ave,55104,44.943625,-93.137483
,,2025-04-29,267000,3,2,1504,6011,Saint Paul,986 Germain Ct,55106,44.971254,-93.032859
2025-01-25,475000,2025-04-18,444000,5,3,2780,8538,Saint Paul,654 Orange Ave E,55106,44.979002,-93.07279
2024-10-16,237000,2025-02-14,237000,3,2,1200,4792,Saint Paul,984 Cook Ave E,55106,44.972759,-93.058994
2025-02-20,349900,2025-04-04,350000,3,1,1386,6970,Saint Paul,1131 Norbert Ln,55116,44.907666,-93.182033
,,2025-04-17,159900,3,1.5,1047,5001,Saint Paul,782 Cook Ave E,55106,44.972737,-93.067406
2024-11-19,269500,2025-01-23,255500,3,2,1772,6708,Saint Paul,1138 Flandrau St,55106,44.975642,-93.027463
2024-11-14,165000,2024-12-18,180000,3,1,997,4922,Saint Paul,1378 Lafond Ave,55104,44.95996,-93.158406
2024-12-24,309900,2025-04-29,305000,3,2,1934,7275,Saint Paul,1030 Larpenteur Ave W,55113,44.991636,-93.143661
2025-02-27,1070000,2025-04-18,1050000,4,3.5,3541,5924,Saint Paul,2230 Princeton Ave,55105,44.93586,-93.194864
2025-05-02,1950000,2025-05-02,1600000,3,2.5,2916,45564,Saint Paul,1630 Edgcumbe Rd,55116,44.914279,-93.151183
2024-12-09,210000,2025-04-30,209000,2,1,1060,5053,Saint Paul,1690 Bush Ave,55106,44.964673,-93.029134
2024-11-19,240000,2024-12-30,227450,2,1,858,4792,Saint Paul,1528 Canfield Ave,55108,44.979791,-93.164897
2025-02-06,259900,2025-04-25,270000,3,1.5,1200,4487,Saint Paul,1133 Jackson St,55117,44.975118,-93.09673
2025-01-13,309999,2025-02-20,335000,3,2,1680,9278,Saint Paul,1668 Clear Ave,55106,44.981782,-93.029915
2024-11-04,185000,2024-12-19,182000,2,1,682,1699,Saint Paul,559 Elfelt St,55103,44.958092,-93.112234
2025-03-06,214900,2025-04-14,230000,2,2,763,6098,Saint Paul,2072 Case Ave E,55119,44.970036,-93.013181
2025-01-27,265000,2025-03-12,301000,2,1,732,6752,Saint Paul,815 Iowa Ave W,55117,44.989337,-93.13419
2025-03-04,297000,2025-04-10,309000,3,2,1418,4966,Saint Paul,781 Howell St N,55104,44.964694,-93.181411
2024-11-08,265000,2025-01-03,270000,3,1.5,1277,4530,Saint Paul,453 Maryland Ave E,55130,44.977626,-93.081493
2024-11-04,279900,2025-02-12,299000,3,1,1262,4617,Saint Paul,805 Cherokee Ave,55107,44.921886,-93.104983
2025-03-29,274900,2025-05-23,291278,4,2,1948,5445,Saint Paul,1278 Woodbridge St,55117,44.979692,-93.108102
2025-03-14,998500,2025-05-15,1052000,4,2.5+,4201,12632,Saint Paul,832 Osceola Ave,55105,44.935321,-93.135161
2025-05-27,310000,2025-05-27,310000,1,2.5,1153,4922,Saint Paul,1285 Juno Ave,55116,44.926303,-93.154627
2025-05-01,420000,2025-05-27,442750,3,2.5,1814,7492,Saint Paul,1381 Nebraska Ave W,55108,44.986696,-93.158433
2025-03-31,265000,2025-05-22,270000,2,1,919,5227,Saint Paul,985 Seminary Ave,55104,44.965051,-93.141891
2025-04-24,314900,2025-05-27,325000,3,1.5,918,4966,Saint Paul,882 Bayard Ave,55102,44.922127,-93.137404
2025-04-21,460000,2025-05-16,478000,4,3,2186,8930,Saint Paul,1464 Laurel Ave,55104,44.944706,-93.162114
2024-10-21,359000,2025-01-24,340000,5,2,2240,6534,Saint Paul,1233 Prosperity Ave,55106,44.978727,-93.040014
2025-04-07,439900,2025-05-01,453000,4,2,2107,5053,Saint Paul,2011 James Ave,55105,44.928224,-93.185334
2025-02-28,330000,2025-04-04,339000,3,2,1524,7405,Saint Paul,688 Nebraska Ave E,55106,44.986252,-93.071553
2025-03-25,495000,2025-04-25,530000,3,2,1776,4922,Saint Paul,1415 Wellesley Ave,55105,44.931769,-93.160044
2025-04-03,590000,2025-05-15,605000,4,2.5,2397,7492,Saint Paul,1914 Selby Ave,55104,44.945891,-93.18135
2025-02-13,750000,2025-03-24,765000,3,1.5+,2670,6011,Saint Paul,2294 Saint Clair Ave,55105,44.934048,-93.197256
2025-03-21,159900,2025-04-28,165000,1,1,814,4966,Saint Paul,622 Wells St,55130,44.967273,-93.074369
2025-03-20,294900,2025-05-05,302000,3,2,1850,5140,Saint Paul,1985 4th St E,55119,44.958815,-93.016573
2025-01-09,299900,2025-02-11,333000,3,1.5,1637,5881,Saint Paul,999 Armstrong Ave,55102,44.925317,-93.14238
2025-03-05,335000,2025-04-28,345000,3,2,1310,14549,Saint Paul,640 Iowa Ave W,55117,44.98864,-93.127379
2025-03-06,150000,2025-03-26,175000,3,1,1092,4879,Saint Paul,109 Geranium Ave W,55117,44.975841,-93.104698
2025-04-22,210000,2025-05-23,215000,3,2,420,4966,Saint Paul,768 Magnolia Ave E,55106,44.973629,-93.068103
2025-03-13,250000,2025-05-15,265000,3,1,1226,4792,Saint Paul,1117 Jenks Ave,55106,44.971497,-93.053479
2025-03-26,215000,2025-05-08,250000,4,2,1914,4487,Saint Paul,935 Jenks Ave,55106,44.971484,-93.06122
,,2025-03-31,210000,3,2,1362,9540,Saint Paul,1337 Ross Ave,55106,44.966115,-93.044351
2025-04-10,350000,2025-05-02,359000,3,1.5,1168,4574,Saint Paul,807 Delaware Ave,55107,44.921768,-93.106186
2025-04-26,150000,2025-05-23,150000,3,1,1415,5271,Saint Paul,1005 Galtier St,55117,44.971651,-93.11143
2025-04-18,405900,2025-05-27,426000,4,2,2200,6273,Saint Paul,84 Hatch Ave W,55117,44.970886,-93.103553
2025-02-25,524999,2025-03-14,586000,3,1.5,1658,5009,Saint Paul,2152 Berkeley Ave,55105,44.933157,-93.191356
2025-04-22,450000,2025-05-14,465000,4,2,1878,4966,Saint Paul,1426 Scheffer Ave,55116,44.92128,-93.160505
2025-03-28,374900,2025-05-13,385000,3,1.5,1800,9714,Saint Paul,42 Darlene St,55119,44.942275,-93.018525
2024-10-02,199000,2024-12-19,206000,3,1,1215,8015,Saint Paul,1159 Seminary Ave,55104,44.965062,-93.148929
2025-05-02,1300000,2025-05-30,1300000,5,3.5,5506,7144,Saint Paul,463 Ashland Ave,55102,44.944695,-93.11967
2025-04-09,199900,2025-05-22,209500,1,1,823,4966,Saint Paul,408 Erie St,55102,44.929059,-93.121644
2025-02-13,599900,2025-03-17,616500,4,2.5+,2504,5968,Saint Paul,1168 Laurel Ave,55104,44.944722,-93.149593
2025-03-10,599900,2025-04-14,570000,7,3,4195,16553,Saint Paul,2376 Bayless Pl,55114,44.968265,-93.201
2025-04-23,250000,2025-05-27,270000,3,1,1067,5009,Saint Paul,1259 Hubbard Ave,55104,44.965922,-93.153301
2025-02-28,324900,2025-05-29,324900,2,2,1399,5837,Saint Paul,1952 Field Ave,55116,44.902205,-93.182741
2025-04-28,575000,2025-05-29,610000,3,2,1849,4966,Saint Paul,880 Osceola Ave,55105,44.935446,-93.137367
2025-04-21,225000,2025-05-29,228500,3,1,1651,6273,Saint Paul,1680 Westminster St,55130,44.991658,-93.085934
2025-04-08,525000,2025-05-15,525000,4,1.5,2574,5968,Saint Paul,1688 Laurel Ave,55104,44.944729,-93.171684
2025-02-12,240000,2025-05-16,245500,3,2,1216,4966,Saint Paul,873 Ohio St,55107,44.919994,-93.097914
2025-04-04,199900,2025-05-19,210000,3,1,1166,5009,Saint Paul,1271 Marion St,55117,44.979539,-93.110102
2025-04-28,725000,2025-05-30,800000,4,1.5,2400,7362,Saint Paul,1281 Como Blvd W,55103,44.979093,-93.143988
2025-04-01,343000,2025-05-30,348000,4,1.5,1408,4792,Saint Paul,709 Stewart Ave,55102,44.922505,-93.129663
2025-03-04,1050000,2025-05-30,1050000,5,3,3400,6752,Saint Paul,2238 Riverwood Pl,55104,44.944456,-93.194709
2025-04-16,219900,2025-05-30,224000,3,1,1152,8538,Saint Paul,1453 7th St E,55106,44.967,-93.039031
2025-04-12,539900,2025-05-29,570006,5,2,2200,5053,Saint Paul,436 Saratoga St S,55105,44.928351,-93.164117
2025-04-07,359900,2025-05-30,377000,2,2,1814,7492,Saint Paul,594 Clifford St,55104,44.958493,-93.203586
2025-03-13,265000,2025-05-30,256000,3,1.5,1212,9801,Saint Paul,1797 Hyacinth Ave E,55119,44.980473,-93.024451
2024-10-04,199900,2024-12-30,200000,3,1.5,1500,6708,Saint Paul,764 Edmund Ave,55104,44.958175,-93.13248
2025-04-24,350000,2025-06-02,400000,3,2,1848,5271,Saint Paul,1511 Osceola Ave,55105,44.936357,-93.163962
2024-08-01,230000,2025-02-03,230000,3,2,1754,5358,Saint Paul,287 Cecelia Pl,55105,44.932801,-93.155942
2025-03-17,489900,2025-05-12,472500,3,1.5,1796,5793,Saint Paul,537 Cretin Ave S,55116,44.92536,-93.19282
2025-04-18,314900,2025-05-21,331000,3,2.5,2064,4617,Saint Paul,577 Michigan St,55102,44.93528,-93.123992
,,2025-04-10,298000,2,2,1140,7505,Saint Paul,525 Wheelock Pkwy E,55130,44.987525,-93.078668
2024-05-15,1250000,2025-02-28,1200000,4,3.5,3766,18731,Saint Paul,1335 Beechwood Pl,55116,44.915441,-93.15643
2025-02-04,288000,2025-03-03,353000,3,2,1283,4966,Saint Paul,1757 Englewood Ave,55104,44.964358,-93.174478
2024-09-06,199000,2024-12-27,200000,3,1,1008,3049,Saint Paul,806 Agate St,55117,44.965511,-93.093761
2025-01-27,275000,2025-03-03,300000,2,1.5,1252,6360,Saint Paul,480 Orleans St,55107,44.931222,-93.09969
2025-01-18,300000,2025-02-24,290000,3,2,1504,10324,Saint Paul,1047 Breen St,55106,44.973039,-93.027041
2024-10-15,349000,2024-12-06,355000,4,1.5,2002,8102,Saint Paul,1547 Hoyt Ave E,55106,44.988643,-93.034986
2025-03-10,569900,2025-04-28,595000,5,3.5,2655,6186,Saint Paul,1766 Sheridan Ave,55116,44.901405,-93.175245
2024-10-23,625000,2024-12-12,630000,4,2.5,2415,7405,Saint Paul,297 Saratoga St S,55105,44.932581,-93.164836
2025-02-25,314900,2025-04-23,333000,4,2,1734,8102,Saint Paul,753 Hall Ave,55107,44.923373,-93.087018
2025-01-09,255000,2025-03-18,253000,3,1,1140,5079,Saint Paul,1605 Reaney Ave,55106,44.964202,-93.032609
2025-02-18,485000,2025-03-26,500000,4,2,2302,9191,Saint Paul,914 Arlington Ave W,55117,44.984322,-93.139046
,,2025-04-01,350000,3,1.5,1329,7501,Saint Paul,1970 Dayton Ave,55104,44.946955,-93.183528
2025-01-09,219900,2025-02-28,219900,2,2,1408,7492,Saint Paul,740 Bidwell St,55107,44.923767,-93.090548
,,2025-01-03,230000,2,1,691,5097,Saint Paul,1499 Holton St,55108,44.986254,-93.160872
2024-09-25,524900,2024-12-13,525000,3,3,2969,6273,Saint Paul,1828 Montreal Ave,55116,44.91224,-93.177657
2024-11-15,324999,2025-03-11,321000,3,1.5,1600,7187,Saint Paul,2218 Upper Afton Rd E,55119,44.940774,-93.00661
,,2025-01-30,221000,2,2,1120,4879,Saint Paul,923 Geranium Ave E,55106,44.975977,-93.061526
2025-01-01,275000,2025-02-10,276000,3,2,1676,4530,Saint Paul,1027 Conway St,55106,44.956105,-93.057127
2024-09-04,475000,2024-12-06,460000,4,3,1848,5532,Saint Paul,2169 Watson Ave,55116,44.924673,-93.191885
2025-01-13,280000,2025-02-07,280000,4,2,1606,9148,Saint Paul,1479 Winthrop St N,55119,44.985749,-93.010495
2025-01-11,225000,2025-02-18,225000,3,2,1354,5401,Saint Paul,1267 4th St E,55106,44.958847,-93.046924
,,2024-12-20,275000,3,2,1542,6599,Saint Paul,292 Thomas Ave,55103,44.959168,-93.112428
,,2025-05-05,805000,4,3.5,3528,17302,Saint Paul,1625 Edgcumbe Rd,55116,44.915312,-93.153394
2025-02-12,345000,2025-03-24,335000,3,2,1824,5968,Saint Paul,1868 Wilson Ave,55119,44.953846,-93.02136
2025-03-12,245000,2025-04-18,285000,3,2,1511,4879,Saint Paul,1079 Rose Ave E,55106,44.97689,-93.054873
2025-03-11,260000,2025-04-18,258000,2,1,1085,8973,Saint Paul,2056 Nokomis Ave,55119,44.966266,-93.014099
2025-01-23,357500,2025-03-18,362500,3,1,1512,4966,Saint Paul,1261 Watson Ave,55116,44.924492,-93.153471
2024-11-07,325000,2024-12-06,316000,3,2,1260,5053,Saint Paul,1624 Hartford Ave,55116,44.923111,-93.168915
,,2024-12-20,335000,5,4.5,2260,10001,Saint Paul,732 Jenks Ave,55106,44.970931,-93.069663
,,2025-01-08,275000,3,1,1321,5053,Saint Paul,1107 Hawthorne Ave E,55106,44.978688,-93.053781
,,2025-02-18,300000,3,2,1315,7100,Saint Paul,1737 Orange Ave E,55106,44.979586,-93.026988
,,2025-01-24,147000,3,1,1108,4961,Saint Paul,862 3rd St E,55106,44.956482,-93.064129
2024-04-12,1275000,2025-01-17,1265000,6,5.5+,7910,10759,Saint Paul,485 Summit Ave,55102,44.941659,-93.120488
2025-02-07,150000,2025-01-27,150000,3,1,1112,4966,Saint Paul,1739 Race St,55116,44.915377,-93.147688
,,2025-03-27,385000,5,2,2126,9919,Saint Paul,1836 Marshall Ave,55104,44.948034,-93.177864
2025-03-01,199900,2025-04-01,210000,2,1,850,4879,Saint Paul,1783 Ames Ave,55119,44.972354,-93.024964
2025-03-20,379900,2025-04-25,400000,3,1.5,1151,6200,Saint Paul,1243 Randolph Ave,55105,44.927213,-93.152704
,,2025-04-15,215000,4,1.5,1538,4879,Saint Paul,664 Orange Ave E,55106,44.979006,-93.072422
,,2025-02-27,205024,3,1,1424,4796,Saint Paul,1611 Edmund Ave,55104,44.958626,-93.168313
2025-02-12,279900,2025-03-14,277000,4,1,1560,12415,Saint Paul,565 Hazel St N,55119,44.958344,-93.020781
2024-11-15,240000,2025-01-21,244000,3,2,980,5140,Saint Paul,1915 4th St E,55119,44.958822,-93.019431
2025-02-21,235000,2025-03-25,230000,4,2,1969,6011,Saint Paul,422 Minnehaha Ave E,55130,44.962739,-93.082782
2024-11-16,219900,2025-02-07,210000,2,1,1701,4792,Saint Paul,1191 Maryland Ave E,55106,44.977799,-93.05007
2025-02-21,297997,2025-04-03,305000,4,2,1800,5053,Saint Paul,900 Palace Ave,55102,44.928415,-93.138159
2025-01-17,220000,2025-02-28,217000,4,2,1434,4792,Saint Paul,1222 Minnehaha Ave E,55106,44.962834,-93.049063
2024-09-20,259900,2025-02-03,287000,3,1,1428,4792,Saint Paul,115 Winifred St W,55107,44.931618,-93.090538
2025-02-04,260000,2025-03-03,286000,2,2,1271,4792,Saint Paul,1354 Blair Ave,55104,44.96087,-93.157474
,,2025-03-26,254000,2,2,1183,6098,Saint Paul,1611 Ross Ave,55106,44.96609,-93.032438
2025-01-10,145000,2025-03-07,145000,2,1,1002,4835,Saint Paul,355 Burgess St,55117,44.968644,-93.115053
2025-01-28,359900,2025-04-14,359150,3,2,1420,4966,Saint Paul,1422 Juliet Ave,55105,44.92944,-93.16035
2024-01-27,1294349,2025-02-28,1269421,5,3.5,3547,7405,Saint Paul,2103 Juliet Ave,55105,44.930033,-93.189158
2024-09-08,164900,2024-12-27,165000,4,2,1742,6926,Saint Paul,1011 Minnehaha Ave E,55106,44.963315,-93.057829
2024-11-02,269000,2024-12-16,275000,3,1,1250,4922,Saint Paul,1266 Lafond Ave,55104,44.959984,-93.153617
2025-03-11,1225000,2025-04-04,1355000,5,3.5,4368,9583,Saint Paul,501 Mount Curve Blvd,55116,44.92632,-93.195505
2025-02-17,325000,2025-04-04,344100,2,1.5,1360,4356,Saint Paul,1185 Randolph Ave,55105,44.927256,-93.149888
,,2025-01-17,385000,3,1,1218,5079,Saint Paul,1616 Hartford Ave,55116,44.92311,-93.168606
,,2024-12-16,650000,4,3,2606,6251,Saint Paul,1134 Palace Ave,55105,44.928497,-93.148044
2025-03-26,349900,2025-04-30,375000,3,2,1344,4835,Saint Paul,970 Carroll Ave,55104,44.950059,-93.141055
2025-02-05,385000,2025-03-14,385000,3,1,1248,5227,Saint Paul,1809 Stanford Ave,55105,44.932729,-93.176668
2025-01-15,224990,2025-02-13,234900,3,1.5,1380,4879,Saint Paul,1132 Beech St,55106,44.961915,-93.052513
,,2025-01-29,250000,5,2.5,3013,4800,Saint Paul,1946 Wellesley Ave,55105,44.93134,-93.182643
2025-01-02,254900,2025-02-21,250000,3,1,1059,6098,Saint Paul,1941 Hawthorne Ave E,55119,44.978663,-93.018477
,,2025-03-21,175000,2,1,1277,7100,Saint Paul,2051 Ivy Ave E,55119,44.981395,-93.013684
2024-09-18,499900,2024-12-20,500000,5,3,2000,5968,Saint Paul,1930 Grand Ave,55105,44.939785,-93.181825
2025-01-24,229900,2025-02-21,250000,3,2,1410,6578,Saint Paul,268 Thomas Ave,55103,44.959119,-93.111393
2025-01-02,295000,2025-02-19,295000,3,2,1482,6534,Saint Paul,1504 Fremont Ave,55106,44.957445,-93.03681
2024-07-18,849900,2024-12-23,780000,5,3.5,3806,9365,Saint Paul,787 Ridge St,55116,44.917469,-93.15337
2024-10-17,260000,2025-01-03,249000,3,2,1222,12763,Saint Paul,212 Acker St E,55117,44.963979,-93.091595
,,2025-03-04,215000,1,1,693,5040,Saint Paul,1875 Cottage Ave E,55119,44.983175,-93.021246
,,2025-01-03,319900,3,2,1240,5001,Saint Paul,1952 Nevada Ave E,55119,44.985385,-93.018012
2024-07-11,349900,2025-03-11,345000,3,2,1638,3964,Saint Paul,62 Pascal St S,55105,44.939606,-93.16163
,,2024-12-31,245500,2,1,1150,5118,Saint Paul,967 Bayard Ave,55102,44.922642,-93.140863
2025-02-12,440000,2025-03-21,460000,3,2.5,2140,5968,Saint Paul,1447 Portland Ave,55104,44.94319,-93.161235
,,2025-03-27,268000,3,1,885,11718,Saint Paul,857 Iroquois Ave,55119,44.967587,-93.01682
2024-10-25,260000,2025-01-24,262250,2,2,1447,4966,Saint Paul,1886 Orange Ave E,55119,44.979049,-93.020854
2024-08-15,345000,2024-12-20,335000,4,1.5,1830,5097,Saint Paul,1612 Alameda St,55117,44.989781,-93.129589
2024-12-07,360000,2025-02-03,350000,3,2,1584,5602,Saint Paul,1822 Chelton Ave W,55104,44.964492,-93.177595
2024-11-01,449900,2024-12-17,445000,3,2,1780,4966,Saint Paul,1727 Eleanor Ave,55116,44.920916,-93.173307
2024-12-06,224900,2025-01-17,240000,3,1.5,1064,5663,Saint Paul,341 Rose Ave E,55130,44.976682,-93.085994
2025-02-10,345000,2025-04-18,350000,4,1.5,1950,4574,Saint Paul,1040 Desoto St,55130,44.972537,-93.0808
2025-02-05,325000,2025-03-11,325000,3,2,1398,5750,Saint Paul,679 California Ave W,55117,44.991128,-93.128643
2025-01-24,300000,2025-03-05,320000,3,2,1604,10803,Saint Paul,1610 Payne Ave N,55130,44.989769,-93.073323
2024-12-01,324900,2025-03-07,324900,3,1.5,2185,6055,Saint Paul,621-625 Minnehaha Ave E,55130,44.963263,-93.074313
2025-01-07,475000,2025-02-03,517500,3,2,1685,5184,Saint Paul,1374 Berkeley Ave,55105,44.933059,-93.158296
,,2025-01-07,275000,3,1,1193,6151,Saint Paul,1628 Arlington Ave E,55106,44.984486,-93.031717
2025-02-26,425000,2025-04-25,400000,4,1.5,1776,5968,Saint Paul,1607 Ashland Ave,55104,44.944258,-93.168134
2025-03-31,399500,2025-04-30,425750,3,2,1339,5227,Saint Paul,1738 Palace Ave,55105,44.928572,-93.173699
2024-12-20,175000,2025-01-08,168965,3,1,1152,1307,Saint Paul,665 Dale St N,55103,44.961408,-93.126591
2024-10-18,181250,2024-12-21,181545,2,1,730,4530,Saint Paul,1793 Arlington Ave E,55119,44.984982,-93.024469
2025-03-11,194900,2025-04-30,194900,3,1,1221,4530,Saint Paul,1014 Fremont Ave,55106,44.9574,-93.057714
2025-03-20,525000,2025-04-30,560000,3,2.5,1917,5358,Saint Paul,277 Cecelia Pl,55105,44.933031,-93.155942
2025-02-17,230000,2025-03-27,240000,3,1,1534,10019,Saint Paul,1946 Nortonia Ave,55119,44.964342,-93.018325
2025-03-26,225000,2025-05-02,238000,2,1,870,3790,Saint Paul,1540 Iglehart Ave,55104,44.94911,-93.165175
2025-03-14,500000,2025-04-18,500000,4,3,2250,7405,Saint Paul,618 Brimhall St,55116,44.922853,-93.165363
2024-09-12,299900,2024-12-31,295900,3,1,1632,5489,Saint Paul,1121 Suburban Ave,55106,44.949843,-93.052951
2024-12-05,239900,2025-03-04,232400,3,1,967,5184,Saint Paul,1394 Furness Pkwy,55119,44.983271,-93.01633
2025-02-26,320000,2025-04-24,320000,3,1.5,1330,6490,Saint Paul,562 Ohio St,55107,44.929151,-93.097379
2025-03-11,415000,2025-04-07,425000,3,3,1841,5184,Saint Paul,1569 Fernwood St,55108,44.988638,-93.151772
2024-09-30,384900,2024-12-04,390000,2,2,1537,5663,Saint Paul,1721 Dayton Ave,55104,44.947657,-93.172971
,,2025-01-28,255000,3,1.5,1080,6151,Saint Paul,1251 5th St E,55106,44.959769,-93.047571
,,2025-03-21,240000,4,2,1852,6199,Saint Paul,1936 Hawthorne Ave E,55119,44.978143,-93.018752
,,2024-12-11,272950,2,1,900,9087,Saint Paul,2062 Hawthorne Ave E,55119,44.978465,-93.013124
2024-12-05,385000,2025-01-31,370000,4,2,2000,4966,Saint Paul,719 Case Ave,55106,44.970527,-93.07021
2024-11-30,600000,2025-02-14,685000,4,3,2039,4879,Saint Paul,2096 Goodrich Ave,55105,44.937699,-93.188966
2024-10-21,144900,2025-03-03,135000,1,1,546,4922,Saint Paul,1684 Hyacinth Ave E,55106,44.979968,-93.029246
,,2024-12-19,345000,3,1,1064,7636,Saint Paul,1021 Idaho Ave W,55117,44.990401,-93.143438
2025-02-14,259900,2025-03-20,269000,2,1,809,34848,Saint Paul,2023 Magnolia Ave E,55119,44.973677,-93.014972
2024-11-21,200000,2024-12-20,202000,2,1,1310,5227,Saint Paul,2190 Bush Ave E,55119,44.964604,-93.00838
2024-10-29,399900,2025-01-30,391500,3,1,1428,8276,Saint Paul,6 Norbert Pl,55116,44.906395,-93.181764
2024-11-15,340000,2025-01-30,330000,4,1,1615,4269,Saint Paul,32 Wheeler St S,55105,44.940409,-93.173939
2024-10-04,279900,2024-12-12,279900,3,1.5,1823,4966,Saint Paul,1862 3rd St E,55119,44.956493,-93.021713
2025-02-07,318000,2025-02-07,318000,2,2,1408,5663,Saint Paul,1460 Eleanor Ave,55116,44.920384,-93.162137
2024-11-24,275000,2025-04-14,286000,4,2,1996,3964,Saint Paul,1252 Albemarle St,55117,44.978855,-93.106847
2025-01-23,709900,2025-02-21,700000,4,3,2864,5009,Saint Paul,2096 Berkeley Ave,55105,44.933162,-93.188966
,,2025-03-10,268000,3,2,1219,18269,Saint Paul,1425 Westminster St,55130,44.984015,-93.086766
2025-02-11,275000,2025-03-14,300000,3,2,1600,7200,Saint Paul,32 Morningside Dr,55119,44.940167,-93.008445
2024-12-10,465000,2025-03-07,480000,3,1.5,1717,8364,Saint Paul,1801 Saunders Ave,55116,44.914595,-93.176201
2024-12-13,214000,2025-02-24,205000,3,1,1000,4835,Saint Paul,705 Magnolia Ave E,55106,44.974126,-93.070629
,,2025-02-26,320000,3,2,1533,8316,Saint Paul,757 Wheelock Pkwy E,55106,44.985111,-93.068557
2024-10-21,580000,2024-12-13,625000,3,2,2229,7405,Saint Paul,1695 Hillcrest Ave,55116,44.917294,-93.171884
2025-01-27,549900,2025-02-27,622000,4,2,2358,6970,Saint Paul,1677 Bohland Ave,55116,44.916403,-93.17119
2025-02-07,400000,2025-03-12,410000,3,1.5,1433,5358,Saint Paul,371 Hamline Ave S,55105,44.930184,-93.157196
,,2025-01-06,225000,2,1,1022,5502,Saint Paul,1997 Montana Ave E,55119,44.987702,-93.015958
2024-12-21,435000,2025-02-04,440000,4,2.5,2196,9583,Saint Paul,1454 Almond Ave,55108,44.978914,-93.161439
2025-02-07,232000,2025-04-04,232000,3,1,1264,4922,Saint Paul,543 Charles Ave,55103,44.957812,-93.122991
2025-01-23,395000,2025-02-25,405000,3,3,2005,5663,Saint Paul,2079 Bayard Ave,55116,44.922775,-93.188211
,,2025-01-27,184854,5,3,1642,5942,Saint Paul,944 Algonquin Ave,55119,44.969701,-93.018515
2024-11-21,585000,2025-02-21,575000,4,2.5,2127,6229,Saint Paul,438 Otis Ave,55104,44.953455,-93.201387
2025-02-28,535900,2025-04-18,535000,7,2.5+,3834,8973,Saint Paul,990 Ashland Ave,55104,44.94364,-93.142145
2025-03-11,275000,2025-04-30,262000,2,2,1160,5401,Saint Paul,2091 Waukon Ave,55119,44.965506,-93.012122
2024-11-20,600000,2025-04-22,575000,3,3,2066,10890,Saint Paul,2019 Ramlow Pl,55116,44.905511,-93.185581
2025-01-21,294999,2025-03-20,310000,4,1,1800,4835,Saint Paul,861 Hawthorne Ave E,55106,44.97868,-93.064236
2024-11-15,375000,2025-01-16,375000,3,1.5,2086,4400,Saint Paul,382 Maple St,55106,44.958857,-93.06897
2024-10-31,242000,2024-12-09,240000,3,1,1591,5702,Saint Paul,1267 Galtier St,55117,44.979456,-93.111388
2024-11-21,439900,2025-04-04,432000,3,2,1532,12197,Saint Paul,1764 Hampshire Ave,55116,44.910428,-93.174722
2025-04-04,250000,2025-04-18,285000,3,1,1191,4356,Saint Paul,829 Manomin Ave,55107,44.92111,-93.100957
,,2025-05-05,205000,1,1,1077,6447,Saint Paul,635 Edmund Ave,55104,44.958694,-93.127057
,,2025-04-30,779000,5,2.5+,3255,7200,Saint Paul,327 Mount Curve Blvd,55105,44.931756,-93.193985
2025-04-02,350000,2025-05-02,360000,3,2,1893,6882,Saint Paul,914 Hoyt Ave W,55117,44.988015,-93.1388
2025-03-18,340000,2025-04-28,340000,3,2,1822,4661,Saint Paul,796 Lexington Pkwy N,55104,44.965385,-93.146063
2025-03-19,345000,2025-04-15,380000,3,1,1032,5619,Saint Paul,1431 Scheffer Ave,55116,44.921791,-93.160707
2024-09-27,349900,2024-12-17,343000,3,2.5,2326,9017,Saint Paul,1836 Woodcrest Dr,55119,44.94536,-93.0228
2025-03-17,875000,2025-05-12,875000,3,3.5,3460,11979,Saint Paul,1456 Edgcumbe Rd,55116,44.92095,-93.149643
2025-04-07,325000,2025-05-29,349000,3,2,1050,6351,Saint Paul,1630 Fernwood St,55108,44.99046,-93.151012
2025-04-29,397500,2025-05-13,430000,3,1,1419,6447,Saint Paul,1026 Saint Paul Ave,55116,44.910957,-93.183199
2024-07-18,775000,2025-05-05,750000,6,2.5+,4800,8668,Saint Paul,1830 Dayton Ave,55104,44.946944,-93.177643
2024-11-05,365000,2024-12-13,360000,3,2,1644,7928,Saint Paul,974 Burns Ave,55106,44.948468,-93.059417
2025-03-31,250000,2025-05-05,301000,2,1,960,4966,Saint Paul,1151 Van Buren Ave,55104,44.962341,-93.148771
,,2025-05-09,275000,3,1,924,4678,Saint Paul,1412 McKinley St,55108,44.983715,-93.160154
2025-02-19,265000,2025-05-08,265000,3,1,1572,4922,Saint Paul,1539 Cumberland St,55117,44.987508,-93.117644
2025-02-11,311300,2025-03-13,311300,3,1,1133,4792,Saint Paul,1765 Van Buren Ave,55104,44.962231,-93.175016
2024-12-10,215000,2025-02-27,195000,2,1,1128,4356,Saint Paul,1260 7th St E,55106,44.966463,-93.047286
2025-03-19,299900,2025-04-30,300000,4,2,1644,4879,Saint Paul,1787 Orange Ave E,55119,44.979572,-93.024769
2024-10-29,325000,2024-12-23,325000,3,2,1838,8407,Saint Paul,2030 Larpenteur Ave E,55109,44.991696,-93.014576
2025-03-28,549900,2025-04-22,610000,4,3.5,2662,5053,Saint Paul,935 Palace Ave,55102,44.928951,-93.139643
2024-12-03,295000,2025-04-04,280000,4,2,1241,4792,Saint Paul,1385 White Bear Ave N,55106,44.983194,-93.025595
2024-10-03,334900,2024-12-18,335000,3,2,1613,10625,Saint Paul,625 Lexington Pkwy S,55116,44.922507,-93.147028
2025-02-26,365000,2025-04-03,365000,3,2,1744,8494,Saint Paul,18 Ruth St N,55119,44.941615,-93.014618
2024-11-12,295000,2024-12-16,292500,3,2,1648,6839,Saint Paul,402 Montana Ave E,55130,44.98704,-93.083524
2025-02-07,434900,2025-02-28,434900,5,3,2274,5968,Saint Paul,1462 Como Ave,55108,44.977045,-93.162115
2024-10-09,199900,2025-01-06,199900,1,1,684,7492,Saint Paul,144 Stevens St W,55107,44.92829,-93.091687
2025-04-17,400000,2025-05-07,453000,3,2,1854,7500,Saint Paul,1340 Keston St,55108,44.981341,-93.197959
2025-04-09,214900,2025-05-22,217000,3,1.5,1280,4792,Saint Paul,298 Cottage Ave W,55117,44.982551,-93.112593
2025-04-04,199000,2025-05-09,190000,4,2,1841,5009,Saint Paul,40 Magnolia Ave W,55117,44.973551,-93.101859
2025-04-01,450000,2025-05-07,460000,3,1.5,1450,4966,Saint Paul,175 Exeter Pl,55104,44.946349,-93.194761
,,2025-05-13,175000,3,1,1046,7802,Saint Paul,1127 Kennard St,55106,44.975375,-93.030754
2024-12-26,299900,2025-03-10,310000,4,2,1608,7536,Saint Paul,280 Hatch Ave,55117,44.970925,-93.111994
2025-04-01,389000,2025-05-23,350000,3,3,2088,5184,Saint Paul,2159 Dayton Ave,55104,44.947524,-93.191473
2025-04-11,345000,2025-05-16,350000,4,2,1857,9361,Saint Paul,18 Michael St,55119,44.941577,-93.005935
2024-11-14,265000,2024-12-16,265000,3,1,1484,4922,Saint Paul,303 Stinson St,55117,44.969557,-93.112846
2024-12-05,419900,2024-12-30,410000,4,2,2286,7492,Saint Paul,1873 Iglehart Ave,55104,44.949756,-93.179544
2025-03-11,329900,2025-04-24,320000,2,1,1544,4966,Saint Paul,1275 Watson Ave,55116,44.924494,-93.153935
2025-02-24,400000,2025-04-15,410000,3,1.5,1681,4400,Saint Paul,424 Daly St,55102,44.928544,-93.126707
2025-02-07,289000,2025-03-21,321000,2,2,996,7318,Saint Paul,1367 Saint Albans St N,55117,44.982293,-93.129145
2025-02-21,1000000,2025-05-22,985000,7,2.5,4185,10890,Saint Paul,1726 Summit Ave,55105,44.941002,-93.173694
2025-03-04,625000,2025-04-25,675000,3,2.5,2348,7492,Saint Paul,1783 Eleanor Ave,55116,44.920925,-93.175707
2025-04-07,239900,2025-05-01,255000,3,2,1133,8146,Saint Paul,1697 Minnehaha Ave E,55106,44.963363,-93.02887
2025-02-24,450000,2025-04-29,520000,3,2,1558,5009,Saint Paul,1516 Arona St,55108,44.98683,-93.163958
2025-02-22,275000,2025-04-15,305000,2,2,1214,4922,Saint Paul,1255 Charles Ave,55104,44.957796,-93.153158
2025-01-09,299000,2025-03-10,295000,4,2,1756,7318,Saint Paul,150 Bates Ave,55106,44.950938,-93.063775
2025-03-17,350000,2025-04-30,350000,5,2,2075,13765,Saint Paul,449 Aurora Ave,55103,44.955134,-93.119013
2024-11-08,209900,2025-03-07,205000,2,2,1516,4661,Saint Paul,1074 Euclid St,55106,44.954715,-93.055136
2025-03-27,260000,2025-05-02,267000,3,2,1390,4051,Saint Paul,112 Sycamore St E,55117,44.964706,-93.095777
2024-10-04,199900,2025-01-10,182000,4,1,1588,2526,Saint Paul,547 Western Ave N,55103,44.957871,-93.11641
2025-05-06,375000,2025-05-27,428500,2,2,1764,6970,Saint Paul,2375 Buford Ave,55108,44.984754,-93.200407
2024-11-14,131000,2025-02-25,131000,2,1,1000,7187,Saint Paul,886 Johnson Pkwy,55106,44.968041,-93.044617
2025-01-22,220000,2025-02-27,288000,3,2,1534,7405,Saint Paul,1694 Sherwood Ave,55106,44.983577,-93.028949
2025-03-27,290000,2025-05-02,295000,4,2,1572,7667,Saint Paul,46 King St W,55107,44.927695,-93.087194
2025-04-29,415000,2025-05-16,480000,2,1,1152,4879,Saint Paul,2151 Fairmount Ave,55105,44.937274,-93.191281
2024-07-31,259900,2024-12-13,247000,3,2,1509,5227,Saint Paul,983 Minnehaha Ave W,55104,44.963257,-93.141744
2024-06-25,799900,2024-12-13,770000,5,3.5,3090,5227,Saint Paul,1965 Rome Ave,55116,44.913675,-93.183394
2024-11-18,314500,2024-12-13,310000,3,1.5,1218,11326,Saint Paul,112 Geranium Ave E,55117,44.975367,-93.095675
2025-03-07,500000,2025-06-02,487500,4,3,2106,5968,Saint Paul,2087 Selby Ave,55104,44.946498,-93.188466
2025-04-30,265000,2025-05-30,280000,2,2,1473,6011,Saint Paul,1777 Sheridan Ave,55116,44.901922,-93.17563
2024-09-07,1999000,2025-05-01,1990000,8,7.5,9188,84071,Saint Paul,6 Crocus Hl,55102,44.938027,-93.122181
2025-04-22,274900,2025-05-20,285000,3,1,1482,3345,Saint Paul,418 Baker St W,55107,44.92642,-93.102938
2024-07-05,320000,2025-02-26,322000,4,2,1768,7405,Saint Paul,1036 Burgess St,55103,44.968147,-93.143827
2025-03-09,215000,2025-03-27,215000,2,2,1063,4922,Saint Paul,1829 Reaney Ave E,55119,44.964234,-93.023269
2025-02-24,364900,2025-04-02,390000,3,1,1248,4574,Saint Paul,2203 Buford Ave,55108,44.985284,-93.193258
2025-02-18,300000,2025-04-03,325000,3,1,1429,4356,Saint Paul,81 Congress St W,55107,44.932518,-93.088956
2024-12-10,199900,2025-02-28,194000,2,1,1214,4922,Saint Paul,1807 Bush Ave E,55119,44.965137,-93.024037
,,2025-03-17,90000,3,1,712,3093,Saint Paul,1002 Front Ave,55103,44.969949,-93.142496
,,2025-04-14,240000,5,2,1570,4918,Saint Paul,929 Margaret St,55106,44.961507,-93.061478
,,2025-01-21,220000,2,2,1414,5001,Saint Paul,375 Erie St,55102,44.929938,-93.122358
2025-03-11,475000,2025-04-10,500000,5,2,2582,5358,Saint Paul,1541 Albert St N,55108,44.987606,-93.159551
,,2025-04-18,499000,2,2,1510,7492,Saint Paul,1486 Lincoln Ave,55105,44.938692,-93.163078
2025-02-17,1495000,2025-04-10,1520000,4,5,5113,9845,Saint Paul,719 Linwood Ave,55105,44.935051,-93.130261
2025-01-08,450000,2025-04-17,456000,3,2.5,1407,5097,Saint Paul,1611 Stanford Ave,55105,44.932699,-93.168396
2024-09-09,311000,2025-03-21,305000,4,2,2033,6186,Saint Paul,808 Brown Ave,55107,44.921724,-93.070718
2024-11-18,599900,2025-03-05,585000,3,2.5,1645,3528,Saint Paul,603 Summit Ave,55102,44.941732,-93.125467
2025-04-04,240000,2025-05-09,255000,4,1,1432,4835,Saint Paul,745 Jessamine Ave E,55106,44.975042,-93.06902
,,2025-04-04,330000,3,1,1368,6299,Saint Paul,2007 Itasca Ave,55116,44.907331,-93.184996
2025-03-19,550000,2025-05-02,565000,5,2.5,2501,5227,Saint Paul,1383 Simpson St,55108,44.982995,-93.163468
,,2025-04-21,140000,3,1,1590,6360,Saint Paul,2146 Nortonia Ave,55119,44.967428,-93.010745
2025-01-09,269990,2025-02-28,272000,3,2,1355,5097,Saint Paul,1978 5th St E,55119,44.959216,-93.016885
,,2024-12-17,249900,4,1,1604,4800,Saint Paul,1676 Van Buren Ave,55104,44.961711,-93.171115
,,2025-01-21,332000,4,2,2274,7148,Saint Paul,240 Kennard St,55106,44.947227,-93.02989
2024-12-11,284900,2025-03-20,250000,3,2,1993,6839,Saint Paul,2105 Fremont Ave E,55119,44.957899,-93.011612
2024-11-06,350000,2024-12-13,355000,3,1,1415,7971,Saint Paul,1215 Colette Pl,55116,44.904761,-93.183688
2024-10-14,329000,2024-12-10,323000,4,2.5,1654,5793,Saint Paul,609 Idaho Ave E,55130,44.990356,-93.074931
,,2025-02-05,120000,3,1,1516,4757,Saint Paul,201 Genesee St,55117,44.965498,-93.091811
2024-11-19,220000,2025-03-10,223000,3,1,1050,5401,Saint Paul,1743 Minnehaha Ave E,55106,44.963357,-93.026747
,,2025-03-03,88000,3,2,1253,5732,Saint Paul,308 Jessamine Ave E,55130,44.974363,-93.087474
,,2025-04-01,230000,3,2,1087,4552,Saint Paul,233 Maryland Ave W,55117,44.977642,-93.110092
2025-02-21,219900,2025-03-27,222000,3,1,1104,4792,Saint Paul,2002 Hawthorne Ave E,55119,44.978139,-93.015965
2024-10-24,259900,2025-01-31,252500,3,2,1468,4574,Saint Paul,1087 Wakefield Ave,55106,44.953411,-93.054545
2024-11-15,250000,2025-02-06,257000,3,1,1148,7405,Saint Paul,2197 3rd St E,55119,44.957015,-93.008301
2025-02-05,300000,2025-04-30,300300,3,2,1568,5140,Saint Paul,1920 4th St E,55119,44.958306,-93.019276
,,2025-03-12,155000,3,2,1356,5998,Saint Paul,1026 Wilson Ave,55106,44.953803,-93.057124
2024-11-26,158000,2025-01-31,158000,3,1,1530,4922,Saint Paul,750 Charles Ave,55104,44.957271,-93.131924
2024-11-08,395000,2025-02-14,405000,3,2.5,2436,9627,Saint Paul,436 Wheelock Pkwy E,55130,44.989258,-93.08306
,,2025-01-14,302500,4,1,1524,7100,Saint Paul,416 Hoyt Ave E,55130,44.987947,-93.083001
2024-11-15,462500,2024-12-13,462500,4,3,2790,12632,Saint Paul,613 North St,55106,44.959579,-93.074793
2025-01-28,239500,2025-03-26,255000,2,1,1085,6229,Saint Paul,528 Grace St,55102,44.932211,-93.122352
2025-02-25,429900,2025-04-11,430000,4,3,2684,12240,Saint Paul,635 Burlington Rd,55119,44.921593,-93.009235
2024-12-03,319900,2025-01-08,330000,4,3,2702,12001,Saint Paul,293 Burlington Rd,55119,44.930687,-93.014274
,,2025-01-10,112300,3,1.5,1602,4796,Saint Paul,823 Margaret St,55106,44.961491,-93.065553
2025-01-28,250000,2025-03-20,254000,3,1,1500,4095,Saint Paul,1633 Case Ave,55106,44.970522,-93.03147
,,2025-02-12,280000,3,1.5,1644,12449,Saint Paul,1270 Arkwright St,55130,44.979444,-93.083305
,,2025-01-22,130000,1,1,884,5009,Saint Paul,788 Sims Ave,55106,44.969147,-93.067115
2024-10-25,250000,2024-12-11,244000,3,1,1266,4051,Saint Paul,931 Charles Ave,55104,44.9578,-93.139588
,,2025-01-15,273000,4,1.5,1670,6599,Saint Paul,867 Western Ave N,55117,44.967323,-93.116488
2025-01-16,265000,2025-03-14,275000,3,1,1559,7405,Saint Paul,2184 Rose Ave E,55119,44.975923,-93.008711
2025-02-11,825000,2025-04-25,902500,5,2.5,2639,10193,Saint Paul,2141 Doswell Ave,55108,44.983247,-93.190249
,,2025-02-05,123465,4,1,2240,6273,Saint Paul,197 Congress St W,55107,44.932481,-93.09453
2024-11-06,275000,2024-12-13,275000,4,1,1215,6098,Saint Paul,1599 Margaret St,55106,44.961582,-93.032733
2024-11-12,310000,2025-01-02,310000,3,1,1420,4792,Saint Paul,895 Carroll Ave,55104,44.950596,-93.137952
2024-09-25,235000,2024-12-23,220000,3,1.5,1213,9148,Saint Paul,520 Beaumont St,55130,44.961287,-93.078331
2024-11-18,270000,2024-12-27,270000,3,1,967,5227,Saint Paul,1147 Minnehaha Ave W,55104,44.963266,-93.148511
2024-10-04,199900,2024-12-12,200000,3,1,979,4966,Saint Paul,887 Lawson Ave E,55106,44.972356,-93.062937
2024-11-15,290000,2024-12-17,290000,4,1.5,1784,6229,Saint Paul,236 Isabel St W,55107,44.932823,-93.095502
2025-03-21,1250000,2025-04-11,1275000,6,4.5+,4639,17642,Saint Paul,1943 Summit Ave,55105,44.942069,-93.182472
2025-02-13,470000,2025-02-28,470000,2,1,1410,2788,Saint Paul,70 Lawton Steps,55102,44.93965,-93.119166
2024-11-06,259000,2025-03-28,262000,2,2,1223,4922,Saint Paul,786 Thomas Ave,55104,44.959086,-93.133321
2025-03-17,259000,2025-04-11,273000,3,2,1138,4835,Saint Paul,756 Geranium Ave E,55106,44.975435,-93.068561
2024-08-07,225000,2025-01-08,230000,3,1,1200,4792,Saint Paul,636 Aurora Ave,55104,44.954565,-93.127161
2025-02-21,189900,2025-03-27,217000,2,1,1080,5140,Saint Paul,1387 Minnehaha Ave E,55106,44.96337,-93.042074
2024-10-26,299900,2025-01-17,307000,4,3,1832,12589,Saint Paul,1271 Kennard St,55106,44.979712,-93.031062
2025-02-20,315000,2025-04-03,320000,3,1,1052,5227,Saint Paul,660 Jefferson Ave,55102,44.930285,-93.127601
2024-12-11,249899,2025-02-14,250000,3,1,940,4356,Saint Paul,435 Banfil St,55102,44.93732,-93.118159
2024-12-20,295000,2025-03-03,295000,4,2,1817,4792,Saint Paul,733 Cook Ave E,55106,44.973219,-93.069728
2024-10-25,399900,2024-12-09,424500,3,1.5,1617,5576,Saint Paul,1473 Osceola Ave,55105,44.936344,-93.162514
2024-06-06,275000,2025-02-27,275000,2,1,1266,5009,Saint Paul,1127 Van Buren Ave,55104,44.962348,-93.147849
2025-04-01,315000,2025-04-25,350000,2,1,832,4879,Saint Paul,1973 Randolph Ave,55105,44.92733,-93.18371
2025-01-06,265000,2025-02-21,265000,3,1,974,4835,Saint Paul,860 Hawthorne Ave E,55106,44.978167,-93.064232
,,2025-03-26,335000,3,1,1120,5719,Saint Paul,1165 Cleveland Ave S,55116,44.906251,-93.187815
2025-03-28,229900,2025-04-23,245000,3,2,1564,8233,Saint Paul,1101 Western Ave N,55117,44.974439,-93.11654
2024-12-13,314900,2025-03-31,304000,3,2,1406,5227,Saint Paul,217 Congress St W,55107,44.932444,-93.094916
2024-11-16,199000,2025-01-10,199000,1,1,666,4879,Saint Paul,1663 Ross Ave,55106,44.966086,-93.030055
,,2025-01-31,545000,3,1.5,1643,5672,Saint Paul,2162 Berkeley Ave,55105,44.933157,-93.191674
,,2025-01-08,361000,3,1,1264,5001,Saint Paul,1147 Palace Ave,55105,44.929008,-93.148448
,,2024-12-10,339900,6,3.5,2632,4961,Saint Paul,516 Thomas Ave,55103,44.959092,-93.121917
,,2025-01-17,475000,4,3.5,2712,16117,Saint Paul,1573 Burg Ave,55119,44.894116,-93.006122
2025-01-16,259900,2025-03-12,259900,4,1.5,1600,4879,Saint Paul,991 Geranium Ave E,55106,44.975981,-93.058671
2025-02-18,96000,2025-03-21,96000,2,1,648,3128,Saint Paul,859 Marion St,55117,44.967151,-93.110108
2024-12-04,250000,2025-01-29,250000,2,2,1045,7492,Saint Paul,809 Englewood Ave,55104,44.964147,-93.134441
2024-11-20,166000,2025-01-31,157501,3,2,1296,3093,Saint Paul,856 Marion St,55117,44.967084,-93.109397
2024-12-02,139900,2024-12-31,140000,3,1,1280,4966,Saint Paul,649 Lafond Ave,55104,44.960506,-93.127661
2025-02-04,400000,2025-03-25,392100,2,1,1765,8146,Saint Paul,1717 Yorkshire Ave,55116,44.911868,-93.172846
,,2025-01-27,465000,3,1.5+,1692,5001,Saint Paul,1706 Scheffer Ave,55116,44.921312,-93.172535
,,2025-04-02,370000,3,1,1498,4761,Saint Paul,184 Syndicate St N,55104,44.946837,-93.153964
2024-10-09,367500,2024-12-06,371000,3,2,1205,5053,Saint Paul,2100 Berkeley Ave,55105,44.933162,-93.189121
,,2025-01-17,300000,3,2,1558,6482,Saint Paul,638 Marshall Ave,55104,44.948216,-93.127114
2025-01-23,485000,2025-03-05,495000,3,1.5,1896,5445,Saint Paul,1817 Wellesley Ave,55105,44.931822,-93.176996
2024-10-15,349000,2024-12-20,340000,5,2,1946,7275,Saint Paul,921 Orange Ave E,55106,44.979584,-93.061591
2024-10-11,299000,2025-03-14,295000,3,1.5,2128,7536,Saint Paul,859 Ivy Ave E,55106,44.981398,-93.064371
2025-03-14,259500,2025-04-28,270000,2,1,884,8102,Saint Paul,743 Idaho Ave W,55117,44.990311,-93.131406
2025-03-18,800000,2025-04-25,800000,3,1.5+,2240,8146,Saint Paul,38 Otis Ave,55104,44.944087,-93.194606
2025-03-17,624900,2025-04-23,600000,4,3,2658,23000,Saint Paul,1518 Burg Ave,55119,44.896015,-93.006469
2025-02-24,415000,2025-04-11,440000,4,1.5,1624,4792,Saint Paul,216 Lexington Pkwy S,55105,44.934973,-93.146305
2025-02-14,309900,2025-04-11,295000,3,2,1572,6578,Saint Paul,1754 6th St E,55106,44.960128,-93.026345
2025-03-04,209900,2025-04-18,207165,2,2,1744,3398,Saint Paul,824 Como Ave,55103,44.973992,-93.133695
2024-12-23,249900,2025-01-17,244000,4,2,1372,5053,Saint Paul,1726 4th St E,55106,44.958326,-93.0275
2024-12-19,324900,2025-02-28,365000,4,2,1900,5968,Saint Paul,1065 Ashland Ave,55104,44.944241,-93.145117
2025-03-12,290000,2025-04-11,316500,3,2,1820,9932,Saint Paul,1691 Rose Ave E,55106,44.976843,-93.029067
,,2025-01-17,280000,3,1,1248,5763,Saint Paul,1158 Bradley St,55130,44.97611,-93.078235
,,2024-12-05,125000,3,2,1392,5881,Saint Paul,1510 Furness Pkwy,55119,44.986872,-93.014805
2024-11-25,299900,2025-01-30,296500,3,2,1260,4922,Saint Paul,1685 Sherburne Ave,55104,44.956738,-93.171387
2024-11-22,300000,2024-12-27,300000,3,1,1189,6578,Saint Paul,126 Syndicate St N,55104,44.945282,-93.15404
2025-02-21,350000,2025-03-28,353500,4,2.5,1575,6098,Saint Paul,562 Ottawa Ave,55107,44.928944,-93.102918
2025-03-03,249900,2025-04-09,260000,2,1,1133,5097,Saint Paul,1077 Idaho Ave W,55117,44.990367,-93.145496
,,2025-01-16,653000,5,2.5,2486,5998,Saint Paul,940 Goodrich Ave,55105,44.937583,-93.139839
,,2025-02-12,176000,3,1.5,1320,9030,Saint Paul,1093 Euclid St,55106,44.955222,-93.054357
2024-10-28,525000,2025-02-14,525000,3,1.5+,2412,6229,Saint Paul,1242 Palace Ave,55105,44.92851,-93.152702
2025-01-25,280000,2025-03-17,280000,3,1,1056,7492,Saint Paul,1680 Wilson Ave,55106,44.953881,-93.029299
2024-07-29,199900,2025-02-28,210000,3,1,1069,5140,Saint Paul,288 Sidney St E,55107,44.923705,-93.073326
2024-11-14,615000,2025-01-03,678000,3,1.5+,1795,5053,Saint Paul,2020 Stanford Ave,55105,44.932252,-93.185794
2024-12-02,265000,2025-02-06,265000,3,2.5,1531,4966,Saint Paul,896 6th St E,55106,44.960097,-93.062769
2024-09-14,764900,2025-02-07,750000,4,3,3005,8756,Saint Paul,48 Mississippi River Blvd N,55104,44.94351,-93.193034
,,2025-04-21,600000,3,1,765,8398,Saint Paul,1860 Glen Ter,55116,44.909557,-93.150874
2025-02-13,214900,2025-03-20,215000,3,1,1384,4966,Saint Paul,783 York Ave,55106,44.968747,-93.067274
2024-10-09,549900,2024-12-27,544390,3,2.5,2158,5227,Saint Paul,2127 Dayton Ave,55104,44.947526,-93.190238
2024-11-15,260000,2025-01-15,270000,4,2,1905,4966,Saint Paul,705 Jenks Ave,55106,44.971419,-93.070666
2024-11-20,294900,2025-01-24,280000,3,2,1331,4835,Saint Paul,1421 Hewitt Ave,55104,44.966824,-93.160355
,,2025-04-09,227500,3,1,1564,6752,Saint Paul,1464 Kent St,55117,44.985284,-93.123282
2024-10-11,350000,2025-01-17,332500,3,2,1598,4792,Saint Paul,1023 Como Pl,55103,44.971907,-93.134734
2024-11-30,1030000,2025-02-05,950000,6,4,4465,8538,Saint Paul,710 Lincoln Ave,55105,44.938559,-93.130051
2024-09-19,324500,2025-01-03,325000,5,2,1870,5968,Saint Paul,1508 Western Ave N,55117,44.986745,-93.115662
2025-03-12,260000,2025-04-24,260000,5,2,1912,4617,Saint Paul,530 Kent St,55103,44.957207,-93.123528
2024-06-19,339000,2024-12-05,343000,4,2,2015,7623,Saint Paul,1353 Prior Ave S,55116,44.900594,-93.182668
2024-10-10,525000,2024-12-11,541000,3,2,2108,7405,Saint Paul,1616 Pinehurst Ave,55116,44.918585,-93.168607
2024-12-19,449999,2025-01-31,440000,3,1.5,2040,6273,Saint Paul,1845 Ford Pkwy,55116,44.918233,-93.17837
2024-10-01,260000,2025-01-31,252000,2,2,1651,8233,Saint Paul,2146 Ames Ave,55119,44.971975,-93.010466
,,2025-02-19,230000,3,2,1200,5001,Saint Paul,948 Lawson Ave E,55106,44.971865,-93.06039
,,2025-01-30,185000,4,1.5,1812,3703,Saint Paul,913 Hudson Rd,55106,44.95253,-93.061942
2024-11-14,315000,2025-01-03,315000,3,2.5,2240,5009,Saint Paul,1060 Lafond Ave,55104,44.960013,-93.144875
2025-02-18,239900,2025-03-19,251000,3,1,979,9365,Saint Paul,93 Winona St E,55107,44.921648,-93.0813
2024-10-03,274900,2024-12-11,265000,2,1.5,1440,6625,Saint Paul,2036 Case Ave E,55119,44.970036,-93.014519
,,2025-04-23,255000,2,1,952,6582,Saint Paul,7 Griggs St N,55104,44.941887,-93.152095
,,2025-01-22,227000,3,1.5,1400,4918,Saint Paul,246 Sidney St E,55107,44.923717,-93.07541
2025-03-25,175000,2025-03-25,167500,3,1,1040,5097,Saint Paul,2061 Minnehaha Ave E,55119,44.963318,-93.013445
,,2025-03-24,280000,4,2,1863,10123,Saint Paul,182 Faye St,55119,44.945821,-93.02166
,,2025-03-24,280000,4,2,1750,10049,Saint Paul,188 Faye St,55119,44.946027,-93.021665
2024-10-11,264990,2025-01-15,265000,3,1,1654,4966,Saint Paul,437 Lawson Ave E,55130,44.972198,-93.082185
,,2025-02-19,210000,3,1,1290,6952,Saint Paul,1525 Pacific St,55106,44.951608,-93.035891
,,2025-03-10,170000,2,1,580,2500,Saint Paul,348 Wyoming St W,55107,44.920525,-93.100005
2024-09-12,500000,2024-12-13,500000,4,2.5,2210,7841,Saint Paul,797 Lakeview Ave,55117,44.982176,-93.133741
2024-11-22,235000,2025-01-28,235000,2,1,1134,4879,Saint Paul,1212 Beech St,55106,44.961938,-93.04936
2024-12-18,289900,2025-01-21,289900,3,1,1337,6273,Saint Paul,1701 Fremont Ave,55106,44.957928,-93.028628
2024-11-01,209900,2024-12-20,205000,3,2,1758,4879,Saint Paul,40 Geranium Ave W,55117,44.975332,-93.101817
,,2025-01-28,280000,3,1,1274,10276,Saint Paul,785 McKnight Rd N,55119,44.965009,-93.005465
2024-12-07,270000,2025-01-30,280000,3,2,1688,4966,Saint Paul,2092 Case Ave E,55119,44.970035,-93.012325
2024-10-03,268000,2024-12-12,268000,3,1,1380,9100,Saint Paul,653 N Otsego St,55130,44.960557,-93.081967
2025-01-10,350000,2025-02-10,350000,4,3,2386,4960,Saint Paul,1032 Conway St,55106,44.955603,-93.056898
2025-02-17,424900,2025-03-14,455000,4,2.5,2272,7841,Saint Paul,1730 Race St,55116,44.91518,-93.146897
2024-11-13,475000,2025-01-08,475000,4,2.5,2993,8625,Saint Paul,647 Manomin Ave,55107,44.92641,-93.101023
2025-04-10,625000,2025-05-01,805000,3,2.5,3043,11500,Saint Paul,860 Syndicate St S,55116,44.915314,-93.15395
2024-09-30,264500,2025-01-17,260400,3,2,1283,11761,Saint Paul,1520 Upper Afton Rd,55106,44.947304,-93.036048
,,2025-02-03,265000,2,2,809,4879,Saint Paul,1108 Thomas Ave,55104,44.959094,-93.147304
,,2025-01-30,165000,5,2,1407,4522,Saint Paul,1135 Jackson St,55117,44.975255,-93.096731
2025-02-13,895000,2025-02-13,895000,5,2.5+,3534,9148,Saint Paul,785 Goodrich Ave,55105,44.938105,-93.13317
2024-12-19,245000,2025-01-17,245000,3,1,864,4792,Saint Paul,848 Fuller Ave,55104,44.953685,-93.135962
2024-11-13,699900,2025-01-15,685000,5,4,2762,4879,Saint Paul,2150 James Ave,55105,44.927712,-93.191201
,,2024-12-09,140000,2,1,1078,4008,Saint Paul,1725 York Ave,55106,44.968989,-93.02749
2024-10-10,210000,2025-03-28,209000,4,1,1166,5053,Saint Paul,1188 Ross Ave,55106,44.965557,-93.05023
2025-03-05,195000,2025-03-31,220000,2,1,925,4879,Saint Paul,1560 Beech St,55106,44.961966,-93.034536
2025-02-17,400000,2025-03-14,455000,3,1.5+,1344,5053,Saint Paul,2178 Palace Ave,55105,44.928609,-93.19228
2025-02-21,450000,2025-05-02,515000,4,2,1880,6360,Saint Paul,1062 Colby St,55116,44.909369,-93.190385
2025-01-28,675000,2025-04-30,675000,5,2.5+,2140,5968,Saint Paul,1016 Goodrich Ave,55105,44.937551,-93.142997
2024-11-13,350000,2024-12-13,350000,3,2,2118,7971,Saint Paul,1344 Saint Albans St N,55117,44.981592,-93.128432
,,2025-04-25,260000,2,1,1166,5968,Saint Paul,304 Webster St,55102,44.932088,-93.124062
2024-12-19,194900,2025-01-03,180000,4,2,1848,7405,Saint Paul,761 Robert St S,55107,44.923039,-93.08115
2025-01-10,369900,2025-02-18,375000,3,1,1060,4138,Saint Paul,1122 Edgcumbe Rd,55105,44.930251,-93.147608
2024-11-21,310000,2025-02-20,310000,3,2,1922,7449,Saint Paul,1632 Wilson Ave,55106,44.953844,-93.031515
2024-11-06,239900,2025-01-10,240000,4,2,1767,4966,Saint Paul,665 Wells St,55106,44.967803,-93.07246
2025-04-30,625000,2025-04-30,625000,5,2,2164,5009,Saint Paul,2160 Bayard Ave,55116,44.922253,-93.191664
2024-10-11,309900,2025-04-15,309900,3,1,1501,7667,Saint Paul,1972 4th St E,55119,44.958301,-93.017151
2024-12-26,724900,2025-02-28,755000,4,3.5,2798,5358,Saint Paul,1216 Palace Ave,55105,44.928507,-93.15152
2024-09-03,289900,2025-01-31,288422,3,2.5,2040,4792,Saint Paul,730 Jenks Ave,55106,44.970929,-93.069898
2025-01-07,710000,2025-01-31,688000,4,2,2350,9191,Saint Paul,220 Oak Grove Pl,55105,44.934791,-93.147542
2025-02-02,900000,2025-04-04,900000,5,4,3000,5009,Saint Paul,2222 Scheffer Ave,55116,44.921331,-93.194216
2024-11-06,230000,2024-12-16,226000,3,2,1014,6839,Saint Paul,1468 Fremont Ave,55106,44.957429,-93.038471
2024-12-11,209000,2025-02-06,212000,3,2,1548,5619,Saint Paul,1060 Marshall Ave,55104,44.948211,-93.144981
2024-12-02,335000,2025-02-28,325000,2,1,969,8015,Saint Paul,2052 Worcester Ave,55116,44.903273,-93.186721
2025-02-07,599900,2025-03-14,615000,5,2,2162,5227,Saint Paul,2135 Bayard Ave,55116,44.922767,-93.190584
2024-10-25,365000,2024-12-05,380000,2,1.5,1240,6229,Saint Paul,955 Eleanor Ave,55102,44.920824,-93.140427
2024-09-15,780000,2024-12-06,759000,5,2,2639,9017,Saint Paul,45 Hilltop Ln,55116,44.907628,-93.17568
2025-03-13,500000,2025-03-27,500000,3,1.5,2147,7492,Saint Paul,1660 Beechwood Ave,55116,44.914986,-93.170342
2025-03-19,475000,2025-05-09,475000,4,2.5,3043,9365,Saint Paul,2150 Valley View Pl,55119,44.913396,-93.008825
2025-04-06,310000,2025-04-30,315000,3,1,1562,24045,Saint Paul,1355 Flandrau St,55106,44.982292,-93.028152
2025-01-17,359900,2025-04-25,359900,4,1.5,1979,12066,Saint Paul,694 Winslow Ave,55107,44.924922,-93.089084
2024-06-22,285000,2025-02-05,295000,3,1,1635,9365,Saint Paul,1884 Carroll Ave,55104,44.950221,-93.179908
2025-03-04,260000,2025-04-30,282000,3,2,1961,1102,Saint Paul,1140 Lane Pl,55106,44.975759,-93.048794
2025-03-05,500000,2025-04-18,485000,3,2,2100,3920,Saint Paul,391 Cretin Ave S,55105,44.92973,-93.192803
2025-02-25,285000,2025-04-25,269000,3,2,1734,6273,Saint Paul,1027 Desoto St,55130,44.972109,-93.081506
2025-03-20,349900,2025-04-28,382000,4,1,1628,12502,Saint Paul,240 Congress St W,55107,44.93197,-93.095781
2025-04-04,150000,2025-04-28,151500,3,2,1260,9278,Saint Paul,1263 Farrington St,55117,44.979428,-93.113915
2025-03-24,299900,2025-04-30,295000,3,2.5,1512,6316,Saint Paul,1899 Margaret St,55119,44.961566,-93.020034
2024-09-30,374900,2024-12-27,364500,4,2,1237,4922,Saint Paul,1411 Wellesley Ave,55105,44.931769,-93.15989
2025-01-11,199999,2025-03-03,198000,2,1,946,2091,Saint Paul,509 Hopkins St,55130,44.958524,-93.078765
,,2025-05-08,175000,3,1,886,5001,Saint Paul,832 Lawson Ave E,55106,44.971859,-93.065311
2025-04-10,299900,2025-05-05,350000,4,1,1494,4400,Saint Paul,371 Emma St,55102,44.933584,-93.115469
2025-03-24,300000,2025-04-30,300000,3,2,2202,10629,Saint Paul,101 McKnight Rd N,55119,44.943982,-93.005279
2025-02-13,229900,2025-04-24,229000,3,1.5,1096,4922,Saint Paul,955 Albemarle St,55117,44.969971,-93.107597
2025-01-13,900000,2025-04-30,873000,5,3.5+,4094,5968,Saint Paul,813 Goodrich Ave,55105,44.93811,-93.134438
2025-03-25,279900,2025-05-15,279900,2,1,1120,3049,Saint Paul,445 Morton St W,55107,44.925834,-93.1041
2025-01-28,299000,2025-03-21,290000,3,1,1440,6490,Saint Paul,658 Ohio St,55107,44.926188,-93.097343
2025-03-05,218000,2025-05-16,210000,4,2,1668,6316,Saint Paul,1067 Bush Ave,55106,44.965152,-93.05546
2024-09-27,200000,2025-01-10,205300,3,2,1628,4835,Saint Paul,1319 Burr St,55130,44.980849,-93.080262
2024-09-27,1999000,2025-01-31,2300000,9,13,15294,26572,Saint Paul,325 Dayton Ave,55102,44.947784,-93.113804
2025-04-01,257000,2025-05-22,257000,3,1.5,1353,4574,Saint Paul,117 Winifred St W,55107,44.931618,-93.090693
2025-04-21,119900,2025-05-22,123500,1,2,626,5489,Saint Paul,2070 Stillwater Ave E,55119,44.968911,-93.013111
2025-04-15,290000,2025-05-21,321000,3,2,1539,7405,Saint Paul,1750 Minnehaha Ave E,55106,44.962837,-93.026487
2025-03-24,293700,2025-04-30,307000,4,2,1502,8015,Saint Paul,1136 Hubbard Ave,55104,44.965436,-93.148156
2025-02-20,205000,2025-03-27,212000,3,1,2273,6578,Saint Paul,877 Desoto St,55130,44.967677,-93.081568
2025-02-13,280000,2025-03-24,277000,3,2,1400,4922,Saint Paul,1251 Van Buren Ave,55104,44.962318,-93.152994
2024-10-03,140000,2024-12-06,120000,2,1,972,4095,Saint Paul,889 York Ave,55106,44.968763,-93.063004
2025-03-31,220000,2025-05-12,225000,3,1,984,4879,Saint Paul,240 Sidney St E,55107,44.923718,-93.075567
2025-02-11,400000,2025-03-07,370000,3,2,1613,5097,Saint Paul,28 Lexington Pkwy S,55105,44.940638,-93.146239
,,2025-05-14,160000,3,1.5,1200,5798,Saint Paul,2039 Nortonia Ave,55119,44.965849,-93.014466
2025-03-12,249000,2025-05-09,254000,2,1.5,1710,4835,Saint Paul,974 Fuller Ave,55104,44.953679,-93.141205
2024-11-22,825000,2025-05-02,780000,4,1.5+,3066,7841,Saint Paul,2349 Commonwealth Ave,55108,44.97863,-93.198536
2025-03-06,299000,2025-04-15,285000,3,1.5,1510,4835,Saint Paul,794 Hyacinth Ave E,55106,44.979962,-93.066952
2025-04-15,499900,2025-05-15,515000,3,2,1328,6882,Saint Paul,741 Mount Curve Blvd,55116,44.919181,-93.19598
2025-02-13,454900,2025-04-30,448000,3,2,1876,5097,Saint Paul,1779 James Ave,55105,44.928186,-93.175463
2025-03-13,475000,2025-05-05,510000,3,2.5,2482,11587,Saint Paul,2437 Stewart Ave,55116,44.900455,-93.166529
2025-04-01,279900,2025-05-12,280000,4,3,2120,5227,Saint Paul,947 6th St E,55106,44.960621,-93.06045
2025-03-07,270000,2025-04-15,280000,3,2,1317,5227,Saint Paul,1830 Nevada Ave E,55119,44.985372,-93.023084
2025-02-03,495000,2025-03-24,495000,5,5.5,2520,8712,Saint Paul,673 Robert St S,55107,44.92559,-93.081154
2024-12-20,140000,2025-01-17,135000,2,1,996,5881,Saint Paul,1565 7th St E,55106,44.967002,-93.034376
2025-03-05,175000,2025-04-24,170000,3,1,1036,3920,Saint Paul,559 Forest St,55106,44.958175,-93.061231
2025-01-10,155000,2025-01-31,140000,3,2,1323,4922,Saint Paul,869 3rd St E,55106,44.956988,-93.063971
2025-02-01,169900,2025-03-13,160000,2,1,1310,4487,Saint Paul,911 Jenks Ave,55106,44.971483,-93.061994
2025-05-19,215000,2025-05-20,215000,2,1.5,960,3999,Saint Paul,1818 Case Ave E,55119,44.970073,-93.023705
2025-03-06,225000,2025-05-02,240500,3,1,1300,4879,Saint Paul,1470 Blair Ave,55104,44.96084,-93.16258
2025-03-26,305000,2025-05-08,315000,3,1,1427,4792,Saint Paul,1486 Minnehaha Ave W,55104,44.962631,-93.163356
,,2025-05-09,257500,4,2,1552,4966,Saint Paul,744 Thomas Ave,55104,44.959083,-93.131777
2025-04-05,295000,2025-05-07,295000,3,1.5,1334,4922,Saint Paul,345 Michigan St,55102,44.934969,-93.114487
2025-04-28,325000,2025-05-30,350000,3,2,1842,8102,Saint Paul,1471 Etna St,55106,44.985606,-93.042219
2024-12-13,350000,2024-12-13,350000,4,1.5,1590,7100,Saint Paul,2016 Iglehart Ave,55104,44.949162,-93.18552
2025-03-13,509900,2025-05-27,497000,4,3,2074,479,Saint Paul,1993 Randolph Ave,55105,44.927333,-93.184483
2025-04-01,560000,2025-05-16,547500,4,2,2030,4922,Saint Paul,1756 Jefferson Ave,55105,44.930391,-93.17447
,,2025-05-19,225000,3,1.5,1380,4500,Saint Paul,2059 Iglehart Ave,55104,44.94967,-93.187138
2025-04-11,335000,2025-05-27,355000,4,3,2510,7841,Saint Paul,1236 Churchill St,55103,44.978438,-93.14455
2025-03-24,315000,2025-05-27,335000,3,1.5,1943,6534,Saint Paul,1450 Nevada Ave E,55106,44.985407,-93.039067
2024-11-08,269900,2025-02-07,275800,3,1,1397,4617,Saint Paul,1501 Margaret St,55106,44.961582,-93.03704
2025-03-01,359900,2025-05-29,370000,3,2.5,1869,5184,Saint Paul,1597 Merrill St,55108,44.989338,-93.153058
2025-01-15,249900,2025-04-18,249900,2,1,780,5576,Saint Paul,673 Hazel St N,55119,44.961697,-93.020626
2024-11-01,299900,2024-12-05,298000,3,2,1561,3703,Saint Paul,681 Simpson St,55104,44.961633,-93.164016
2025-04-22,575000,2025-05-15,630000,4,2,2144,5532,Saint Paul,974 Osceola Ave,55105,44.93548,-93.141083
,,2025-05-20,63000,4,2,1946,7057,Saint Paul,1341 Barclay St,55106,44.981995,-93.038415
2024-09-14,350000,2025-02-19,350000,4,1.5,1966,7405,Saint Paul,12 Winthrop St S,55119,44.94064,-93.009625
2024-12-07,81000,2025-01-03,81000,2,1.5,1204,4922,Saint Paul,527 Edmund Ave,55103,44.958712,-93.122378
2025-04-02,280000,2025-05-16,285000,3,2,1373,6229,Saint Paul,745 Manomin Ave,55107,44.923481,-93.100988
2025-03-24,284900,2025-05-12,288000,2,2,1546,14593,Saint Paul,1868 Minnehaha Ave E,55119,44.962593,-93.021611
2025-03-21,450000,2025-05-15,485000,3,2.5,1730,5009,Saint Paul,2156 Stanford Ave,55105,44.932249,-93.191512
2025-03-11,359900,2025-05-14,360000,3,1,1667,6229,Saint Paul,905 Iowa Ave W,55117,44.989444,-93.138198
2025-02-11,480000,2025-05-02,480000,4,2,2558,9148,Saint Paul,868 Mound St,55106,44.949409,-93.061856
2025-04-25,330000,2025-05-30,365000,3,1,1615,4008,Saint Paul,1033 Churchill St,55103,44.972212,-93.145802
2025-04-09,250000,2025-05-20,261000,4,2,1726,4356,Saint Paul,867 Jordan Ave,55119,44.967614,-93.017567
2025-03-26,244900,2025-05-16,255000,3,1,1073,5227,Saint Paul,948 Margaret St,55106,44.960991,-93.060455
2025-03-28,219900,2025-05-16,219900,2,1,1093,6665,Saint Paul,1165 Breen St,55106,44.976325,-93.026947
2025-03-20,385000,2025-05-08,385000,4,2,2025,5009,Saint Paul,680 Fairview Ave N,55104,44.96161,-93.176868
2025-03-17,359900,2025-05-14,355000,5,3,2018,4966,Saint Paul,253 Warwick St,55105,44.933769,-93.163574
2025-04-25,775000,2025-05-19,823000,6,2.5,3364,14375,Saint Paul,1737 Summit Ave,55105,44.942037,-93.173835
2024-11-07,450000,2025-01-10,480444,3,2,1923,8364,Saint Paul,1769 Saunders Ave,55116,44.914594,-93.175014
,,2025-05-20,208000,3,1,853,5040,Saint Paul,1865 Cottage Ave E,55119,44.983175,-93.021555
2024-11-22,245000,2024-12-27,258000,3,1,1813,8407,Saint Paul,553 Hoyt Ave E,55130,44.988534,-93.077416
,,2025-02-25,420000,3,2,1652,5271,Saint Paul,1767 Ford Pkwy,55116,44.918224,-93.174924
2025-03-16,279900,2025-03-17,265000,5,2,2174,7971,Saint Paul,946 Flandrau St,55106,44.969821,-93.027407
,,2025-02-05,332000,3,1,1496,4961,Saint Paul,722 Lafond Ave,55104,44.95999,-93.130645
,,2025-04-10,160000,2,1,1002,5001,Saint Paul,288 King St W,55107,44.927379,-93.097938
2025-02-18,295000,2025-03-20,315500,3,2,1613,5009,Saint Paul,239 Robie St E,55107,44.930028,-93.074634
,,2024-12-27,184900,1,1,704,4792,Saint Paul,1121 Central Ave W,55104,44.953286,-93.147604
,,2025-03-14,290000,4,2,1284,9901,Saint Paul,1013 Iglehart Ave,55104,44.949687,-93.142884
,,2025-01-30,450000,3,1.5,1288,3176,Saint Paul,1156 Bush Ave,55106,44.964647,-93.051717
2024-10-30,237500,2025-01-10,237500,3,1,1230,4748,Saint Paul,1225 Arkwright St,55130,44.978018,-93.083994
2024-11-27,249900,2025-02-28,249900,3,2,1075,6186,Saint Paul,1733 Montana Ave E,55106,44.987688,-93.027049
2025-03-10,244900,2025-05-05,244900,3,2,1606,4966,Saint Paul,605 Cook Ave E,55130,44.973173,-93.07481
2024-11-14,324900,2024-12-20,336000,5,3,2183,9017,Saint Paul,1263 Edgerton St,55130,44.979353,-93.076498
2024-11-22,399900,2025-01-10,425000,3,1,1329,5227,Saint Paul,1560 Holton St,55108,44.98806,-93.160102
2024-09-10,282500,2024-12-19,283974,3,2,1695,5336,Saint Paul,630 White Bear Ave N,55106,44.960452,-93.024983
2025-02-18,201000,2025-03-31,203000,1,1,588,4792,Saint Paul,939 Juno Ave,55102,44.926184,-93.139806
2025-01-09,800000,2025-03-28,800000,5,2.5,3305,8320,Saint Paul,1668 Portland Ave,55104,44.942591,-93.171049
,,2025-04-25,117003,4,2.5,1754,4961,Saint Paul,995 Wakefield Ave,55106,44.953406,-93.058489
2024-10-17,299900,2024-12-31,295000,3,2,1176,4792,Saint Paul,1764 Dayton Ave,55104,44.947189,-93.175068
2024-11-27,280000,2024-12-30,280000,3,2,1872,6098,Saint Paul,930 Hawthorne Ave E,55106,44.978169,-93.061282
2024-10-22,299990,2025-03-31,300000,4,2,1908,9714,Saint Paul,1253 Etna St,55106,44.979077,-93.042219
,,2025-01-03,106000,4,2,1237,3999,Saint Paul,1034 McLean Ave,55106,44.950164,-93.056842
2025-01-24,194000,2025-02-14,201000,3,1,1069,4879,Saint Paul,1123 Magnolia Ave E,55106,44.97418,-93.052945
,,2025-04-18,185000,2,2.5,1592,6251,Saint Paul,756 Nebraska Ave E,55106,44.986276,-93.06866
2024-10-09,255000,2024-12-06,255000,3,2,1688,14593,Saint Paul,1847 Margaret St,55119,44.961793,-93.022374
2025-04-07,314900,2025-05-05,335000,4,2,1932,6011,Saint Paul,245 Annapolis St E,55118,44.919819,-93.075278
2025-02-05,850000,2025-04-07,840000,5,3.5,4348,7405,Saint Paul,853 Lincoln Ave,55105,44.939177,-93.136004
2024-12-27,299900,2025-02-21,320000,5,2,1866,7057,Saint Paul,1754 Clear Ave,55106,44.981777,-93.026195
,,2025-04-15,194000,4,2,1707,3999,Saint Paul,260 Nugent St,55102,44.933434,-93.116674
2024-08-31,180000,2024-12-23,180000,3,1,2500,3920,Saint Paul,1511 Case Ave,55106,44.970562,-93.036706
,,2024-12-19,290000,3,1.5,1398,4800,Saint Paul,793 Charles Ave,55104,44.957788,-93.13347
2025-01-17,295000,2025-03-11,298000,3,2,1632,5140,Saint Paul,1969 4th St E,55119,44.958817,-93.017192
2024-11-01,185000,2025-03-11,170000,2,1,1580,4008,Saint Paul,963 Western Ave N,55117,44.970332,-93.116448
,,2025-04-07,321500,6,2.5,1667,5968,Saint Paul,1824 Stillwater Ave E,55119,44.967445,-93.023408
2025-03-18,260000,2025-04-25,270000,3,2,1801,5009,Saint Paul,1055 Wilson Ave,55106,44.954311,-93.055953
2025-02-21,1000000,2025-05-22,985000,7,2.5,4185,10890,Saint Paul,1726 Summit Ave,55105,44.941002,-93.173694
2025-01-10,369900,2025-02-18,375000,3,1,1060,4138,Saint Paul,1122 Edgcumbe Rd,55105,44.930251,-93.147608
2024-11-13,699900,2025-01-15,685000,5,4,2762,4879,Saint Paul,2150 James Ave,55105,44.927712,-93.191201
2025-02-17,400000,2025-03-14,455000,3,1.5+,1344,5053,Saint Paul,2178 Palace Ave,55105,44.928609,-93.19228
2024-10-10,210000,2025-03-28,209000,4,1,1166,5053,Saint Paul,1188 Ross Ave,55106,44.965557,-93.05023
2024-12-19,324900,2025-02-28,365000,4,2,1900,5968,Saint Paul,1065 Ashland Ave,55104,44.944241,-93.145117
,,2025-01-30,185000,4,1.5,1812,3703,Saint Paul,913 Hudson Rd,55106,44.95253,-93.061942
,,2025-02-19,230000,3,2,1200,5001,Saint Paul,948 Lawson Ave E,55106,44.971865,-93.06039
,,2024-12-09,140000,2,1,1078,4008,Saint Paul,1725 York Ave,55106,44.968989,-93.02749
2025-02-04,400000,2025-03-25,392100,2,1,1765,8146,Saint Paul,1717 Yorkshire Ave,55116,44.911868,-93.172846
2024-09-19,324500,2025-01-03,325000,5,2,1870,5968,Saint Paul,1508 Western Ave N,55117,44.986745,-93.115662
,,2025-01-17,300000,3,2,1558,6482,Saint Paul,638 Marshall Ave,55104,44.948216,-93.127114
2024-10-09,367500,2024-12-06,371000,3,2,1205,5053,Saint Paul,2100 Berkeley Ave,55105,44.933162,-93.189121
,,2025-04-02,370000,3,1,1498,4761,Saint Paul,184 Syndicate St N,55104,44.946837,-93.153964
2025-02-21,450000,2025-05-02,515000,4,2,1880,6360,Saint Paul,1062 Colby St,55116,44.909369,-93.190385
,,2025-04-25,260000,2,1,1166,5968,Saint Paul,304 Webster St,55102,44.932088,-93.124062
2024-12-18,289900,2025-01-21,289900,3,1,1337,6273,Saint Paul,1701 Fremont Ave,55106,44.957928,-93.028628
2024-11-22,235000,2025-01-28,235000,2,1,1134,4879,Saint Paul,1212 Beech St,55106,44.961938,-93.04936
2025-01-10,350000,2025-02-10,350000,4,3,2386,4960,Saint Paul,1032 Conway St,55106,44.955603,-93.056898
2024-11-13,475000,2025-01-08,475000,4,2.5,2993,8625,Saint Paul,647 Manomin Ave,55107,44.92641,-93.101023
,,2025-03-24,280000,4,2,1750,10049,Saint Paul,188 Faye St,55119,44.946027,-93.021665
2024-09-12,500000,2024-12-13,500000,4,2.5,2210,7841,Saint Paul,797 Lakeview Ave,55117,44.982176,-93.133741
2025-03-25,175000,2025-03-25,167500,3,1,1040,5097,Saint Paul,2061 Minnehaha Ave E,55119,44.963318,-93.013445
2024-10-03,268000,2024-12-12,268000,3,1,1380,9100,Saint Paul,653 N Otsego St,55130,44.960557,-93.081967
,,2025-01-28,280000,3,1,1274,10276,Saint Paul,785 McKnight Rd N,55119,44.965009,-93.005465
2024-10-11,264990,2025-01-15,265000,3,1,1654,4966,Saint Paul,437 Lawson Ave E,55130,44.972198,-93.082185
,,2025-03-10,170000,2,1,580,2500,Saint Paul,348 Wyoming St W,55107,44.920525,-93.100005
2025-02-17,424900,2025-03-14,455000,4,2.5,2272,7841,Saint Paul,1730 Race St,55116,44.91518,-93.146897
,,2025-03-24,280000,4,2,1863,10123,Saint Paul,182 Faye St,55119,44.945821,-93.02166
2024-12-07,270000,2025-01-30,280000,3,2,1688,4966,Saint Paul,2092 Case Ave E,55119,44.970035,-93.012325
2024-11-01,209900,2024-12-20,205000,3,2,1758,4879,Saint Paul,40 Geranium Ave W,55117,44.975332,-93.101817
2025-03-04,209900,2025-04-18,207165,2,2,1744,3398,Saint Paul,824 Como Ave,55103,44.973992,-93.133695
2025-02-24,415000,2025-04-11,440000,4,1.5,1624,4792,Saint Paul,216 Lexington Pkwy S,55105,44.934973,-93.146305
2024-12-23,249900,2025-01-17,244000,4,2,1372,5053,Saint Paul,1726 4th St E,55106,44.958326,-93.0275
2025-02-14,309900,2025-04-11,295000,3,2,1572,6578,Saint Paul,1754 6th St E,55106,44.960128,-93.026345
2024-10-01,260000,2025-01-31,252000,2,2,1651,8233,Saint Paul,2146 Ames Ave,55119,44.971975,-93.010466
2024-06-19,339000,2024-12-05,343000,4,2,2015,7623,Saint Paul,1353 Prior Ave S,55116,44.900594,-93.182668
,,2025-01-30,165000,5,2,1407,4522,Saint Paul,1135 Jackson St,55117,44.975255,-93.096731
2024-09-30,264500,2025-01-17,260400,3,2,1283,11761,Saint Paul,1520 Upper Afton Rd,55106,44.947304,-93.036048
2024-12-19,449999,2025-01-31,440000,3,1.5,2040,6273,Saint Paul,1845 Ford Pkwy,55116,44.918233,-93.17837
2024-10-10,525000,2024-12-11,541000,3,2,2108,7405,Saint Paul,1616 Pinehurst Ave,55116,44.918585,-93.168607
2024-11-25,299900,2025-01-30,296500,3,2,1260,4922,Saint Paul,1685 Sherburne Ave,55104,44.956738,-93.171387
,,2025-04-21,600000,3,1,765,8398,Saint Paul,1860 Glen Ter,55116,44.909557,-93.150874
2025-02-21,350000,2025-03-28,353500,4,2.5,1575,6098,Saint Paul,562 Ottawa Ave,55107,44.928944,-93.102918
2025-03-03,249900,2025-04-09,260000,2,1,1133,5097,Saint Paul,1077 Idaho Ave W,55117,44.990367,-93.145496
2025-04-10,625000,2025-05-01,805000,3,2.5,3043,11500,Saint Paul,860 Syndicate St S,55116,44.915314,-93.15395
2024-09-03,289900,2025-01-31,288422,3,2.5,2040,4792,Saint Paul,730 Jenks Ave,55106,44.970929,-93.069898
,,2025-01-17,280000,3,1,1248,5763,Saint Paul,1158 Bradley St,55130,44.97611,-93.078235
,,2024-12-05,125000,3,2,1392,5881,Saint Paul,1510 Furness Pkwy,55119,44.986872,-93.014805
2025-03-12,290000,2025-04-11,316500,3,2,1820,9932,Saint Paul,1691 Rose Ave E,55106,44.976843,-93.029067
2025-03-13,500000,2025-03-27,500000,3,1.5,2147,7492,Saint Paul,1660 Beechwood Ave,55116,44.914986,-93.170342
2024-10-09,549900,2024-12-27,544390,3,2.5,2158,5227,Saint Paul,2127 Dayton Ave,55104,44.947526,-93.190238
2024-09-15,780000,2024-12-06,759000,5,2,2639,9017,Saint Paul,45 Hilltop Ln,55116,44.907628,-93.17568
2025-01-07,710000,2025-01-31,688000,4,2,2350,9191,Saint Paul,220 Oak Grove Pl,55105,44.934791,-93.147542
2025-02-02,900000,2025-04-04,900000,5,4,3000,5009,Saint Paul,2222 Scheffer Ave,55116,44.921331,-93.194216
2024-11-15,260000,2025-01-15,270000,4,2,1905,4966,Saint Paul,705 Jenks Ave,55106,44.971419,-93.070666
2024-10-11,350000,2025-01-17,332500,3,2,1598,4792,Saint Paul,1023 Como Pl,55103,44.971907,-93.134734
,,2025-01-22,227000,3,1.5,1400,4918,Saint Paul,246 Sidney St E,55107,44.923717,-93.07541
2024-11-14,315000,2025-01-03,315000,3,2.5,2240,5009,Saint Paul,1060 Lafond Ave,55104,44.960013,-93.144875
2025-02-18,239900,2025-03-19,251000,3,1,979,9365,Saint Paul,93 Winona St E,55107,44.921648,-93.0813
2024-10-03,274900,2024-12-11,265000,2,1.5,1440,6625,Saint Paul,2036 Case Ave E,55119,44.970036,-93.014519
,,2025-04-23,255000,2,1,952,6582,Saint Paul,7 Griggs St N,55104,44.941887,-93.152095
2025-04-30,625000,2025-04-30,625000,5,2,2164,5009,Saint Paul,2160 Bayard Ave,55116,44.922253,-93.191664
2024-11-06,239900,2025-01-10,240000,4,2,1767,4966,Saint Paul,665 Wells St,55106,44.967803,-93.07246
2024-09-14,764900,2025-02-07,750000,4,3,3005,8756,Saint Paul,48 Mississippi River Blvd N,55104,44.94351,-93.193034
,,2025-02-19,210000,3,1,1290,6952,Saint Paul,1525 Pacific St,55106,44.951608,-93.035891
2024-12-11,209000,2025-02-06,212000,3,2,1548,5619,Saint Paul,1060 Marshall Ave,55104,44.948211,-93.144981
2024-11-30,1030000,2025-02-05,950000,6,4,4465,8538,Saint Paul,710 Lincoln Ave,55105,44.938559,-93.130051
2024-11-06,230000,2024-12-16,226000,3,2,1014,6839,Saint Paul,1468 Fremont Ave,55106,44.957429,-93.038471
2024-10-25,365000,2024-12-05,380000,2,1.5,1240,6229,Saint Paul,955 Eleanor Ave,55102,44.920824,-93.140427
2024-11-20,294900,2025-01-24,280000,3,2,1331,4835,Saint Paul,1421 Hewitt Ave,55104,44.966824,-93.160355
,,2025-04-09,227500,3,1,1564,6752,Saint Paul,1464 Kent St,55117,44.985284,-93.123282
2024-12-02,335000,2025-02-28,325000,2,1,969,8015,Saint Paul,2052 Worcester Ave,55116,44.903273,-93.186721
2025-01-17,359900,2025-04-25,359900,4,1.5,1979,12066,Saint Paul,694 Winslow Ave,55107,44.924922,-93.089084
2025-03-04,260000,2025-04-30,282000,3,2,1961,1102,Saint Paul,1140 Lane Pl,55106,44.975759,-93.048794
2025-03-19,475000,2025-05-09,475000,4,2.5,3043,9365,Saint Paul,2150 Valley View Pl,55119,44.913396,-93.008825
2024-11-22,300000,2024-12-27,300000,3,1,1189,6578,Saint Paul,126 Syndicate St N,55104,44.945282,-93.15404
2024-10-11,309900,2025-04-15,309900,3,1,1501,7667,Saint Paul,1972 4th St E,55119,44.958301,-93.017151
2024-12-26,724900,2025-02-28,755000,4,3.5,2798,5358,Saint Paul,1216 Palace Ave,55105,44.928507,-93.15152
2025-02-13,214900,2025-03-20,215000,3,1,1384,4966,Saint Paul,783 York Ave,55106,44.968747,-93.067274
2025-02-07,599900,2025-03-14,615000,5,2,2162,5227,Saint Paul,2135 Bayard Ave,55116,44.922767,-93.190584
2024-11-14,615000,2025-01-03,678000,3,1.5+,1795,5053,Saint Paul,2020 Stanford Ave,55105,44.932252,-93.185794
2025-01-25,280000,2025-03-17,280000,3,1,1056,7492,Saint Paul,1680 Wilson Ave,55106,44.953881,-93.029299
2024-07-29,199900,2025-02-28,210000,3,1,1069,5140,Saint Paul,288 Sidney St E,55107,44.923705,-93.073326
2024-12-02,265000,2025-02-06,265000,3,2.5,1531,4966,Saint Paul,896 6th St E,55106,44.960097,-93.062769
,,2025-01-16,653000,5,2.5,2486,5998,Saint Paul,940 Goodrich Ave,55105,44.937583,-93.139839
,,2025-02-12,176000,3,1.5,1320,9030,Saint Paul,1093 Euclid St,55106,44.955222,-93.054357
2024-10-28,525000,2025-02-14,525000,3,1.5+,2412,6229,Saint Paul,1242 Palace Ave,55105,44.92851,-93.152702
2025-02-25,285000,2025-04-25,269000,3,2,1734,6273,Saint Paul,1027 Desoto St,55130,44.972109,-93.081506
2024-06-22,285000,2025-02-05,295000,3,1,1635,9365,Saint Paul,1884 Carroll Ave,55104,44.950221,-93.179908
2025-04-06,310000,2025-04-30,315000,3,1,1562,24045,Saint Paul,1355 Flandrau St,55106,44.982292,-93.028152
2025-01-11,199999,2025-03-03,198000,2,1,946,2091,Saint Paul,509 Hopkins St,55130,44.958524,-93.078765
2025-04-04,150000,2025-04-28,151500,3,2,1260,9278,Saint Paul,1263 Farrington St,55117,44.979428,-93.113915
2025-02-13,229900,2025-04-24,229000,3,1.5,1096,4922,Saint Paul,955 Albemarle St,55117,44.969971,-93.107597
2025-03-24,299900,2025-04-30,295000,3,2.5,1512,6316,Saint Paul,1899 Margaret St,55119,44.961566,-93.020034
2025-03-05,500000,2025-04-18,485000,3,2,2100,3920,Saint Paul,391 Cretin Ave S,55105,44.92973,-93.192803
2024-09-30,374900,2024-12-27,364500,4,2,1237,4922,Saint Paul,1411 Wellesley Ave,55105,44.931769,-93.15989
2024-12-13,350000,2024-12-13,350000,4,1.5,1590,7100,Saint Paul,2016 Iglehart Ave,55104,44.949162,-93.18552
2024-11-07,450000,2025-01-10,480444,3,2,1923,8364,Saint Paul,1769 Saunders Ave,55116,44.914594,-93.175014
,,2025-05-20,208000,3,1,853,5040,Saint Paul,1865 Cottage Ave E,55119,44.983175,-93.021555
2025-03-20,349900,2025-04-28,382000,4,1,1628,12502,Saint Paul,240 Congress St W,55107,44.93197,-93.095781
2025-03-24,300000,2025-04-30,300000,3,2,2202,10629,Saint Paul,101 McKnight Rd N,55119,44.943982,-93.005279
2025-04-10,299900,2025-05-05,350000,4,1,1494,4400,Saint Paul,371 Emma St,55102,44.933584,-93.115469
2025-01-13,900000,2025-04-30,873000,5,3.5+,4094,5968,Saint Paul,813 Goodrich Ave,55105,44.93811,-93.134438
,,2025-05-08,175000,3,1,886,5001,Saint Paul,832 Lawson Ave E,55106,44.971859,-93.065311
2025-03-25,279900,2025-05-15,279900,2,1,1120,3049,Saint Paul,445 Morton St W,55107,44.925834,-93.1041
2025-03-05,218000,2025-05-16,210000,4,2,1668,6316,Saint Paul,1067 Bush Ave,55106,44.965152,-93.05546
2025-01-28,299000,2025-03-21,290000,3,1,1440,6490,Saint Paul,658 Ohio St,55107,44.926188,-93.097343
2024-09-27,1999000,2025-01-31,2300000,9,13,15294,26572,Saint Paul,325 Dayton Ave,55102,44.947784,-93.113804
2025-04-15,290000,2025-05-21,321000,3,2,1539,7405,Saint Paul,1750 Minnehaha Ave E,55106,44.962837,-93.026487
2025-04-21,119900,2025-05-22,123500,1,2,626,5489,Saint Paul,2070 Stillwater Ave E,55119,44.968911,-93.013111
2025-04-01,257000,2025-05-22,257000,3,1.5,1353,4574,Saint Paul,117 Winifred St W,55107,44.931618,-93.090693
2025-03-31,220000,2025-05-12,225000,3,1,984,4879,Saint Paul,240 Sidney St E,55107,44.923718,-93.075567
2025-03-24,293700,2025-04-30,307000,4,2,1502,8015,Saint Paul,1136 Hubbard Ave,55104,44.965436,-93.148156
2025-02-13,280000,2025-03-24,277000,3,2,1400,4922,Saint Paul,1251 Van Buren Ave,55104,44.962318,-93.152994
2024-10-03,140000,2024-12-06,120000,2,1,972,4095,Saint Paul,889 York Ave,55106,44.968763,-93.063004
2025-01-10,155000,2025-01-31,140000,3,2,1323,4922,Saint Paul,869 3rd St E,55106,44.956988,-93.063971
2025-02-11,400000,2025-03-07,370000,3,2,1613,5097,Saint Paul,28 Lexington Pkwy S,55105,44.940638,-93.146239
2025-02-20,205000,2025-03-27,212000,3,1,2273,6578,Saint Paul,877 Desoto St,55130,44.967677,-93.081568
2025-03-07,270000,2025-04-15,280000,3,2,1317,5227,Saint Paul,1830 Nevada Ave E,55119,44.985372,-93.023084
2025-03-13,475000,2025-05-05,510000,3,2.5,2482,11587,Saint Paul,2437 Stewart Ave,55116,44.900455,-93.166529
2025-05-19,215000,2025-05-20,215000,2,1.5,960,3999,Saint Paul,1818 Case Ave E,55119,44.970073,-93.023705
2024-09-27,200000,2025-01-10,205300,3,2,1628,4835,Saint Paul,1319 Burr St,55130,44.980849,-93.080262
2025-03-06,225000,2025-05-02,240500,3,1,1300,4879,Saint Paul,1470 Blair Ave,55104,44.96084,-93.16258
,,2025-05-09,257500,4,2,1552,4966,Saint Paul,744 Thomas Ave,55104,44.959083,-93.131777
2025-03-26,305000,2025-05-08,315000,3,1,1427,4792,Saint Paul,1486 Minnehaha Ave W,55104,44.962631,-93.163356
2025-04-05,295000,2025-05-07,295000,3,1.5,1334,4922,Saint Paul,345 Michigan St,55102,44.934969,-93.114487
2025-04-15,499900,2025-05-15,515000,3,2,1328,6882,Saint Paul,741 Mount Curve Blvd,55116,44.919181,-93.19598
2025-02-13,454900,2025-04-30,448000,3,2,1876,5097,Saint Paul,1779 James Ave,55105,44.928186,-93.175463
2025-01-15,249900,2025-04-18,249900,2,1,780,5576,Saint Paul,673 Hazel St N,55119,44.961697,-93.020626
2024-11-22,825000,2025-05-02,780000,4,1.5+,3066,7841,Saint Paul,2349 Commonwealth Ave,55108,44.97863,-93.198536
2025-03-12,249000,2025-05-09,254000,2,1.5,1710,4835,Saint Paul,974 Fuller Ave,55104,44.953679,-93.141205
,,2025-05-14,160000,3,1.5,1200,5798,Saint Paul,2039 Nortonia Ave,55119,44.965849,-93.014466
2025-03-06,299000,2025-04-15,285000,3,1.5,1510,4835,Saint Paul,794 Hyacinth Ave E,55106,44.979962,-93.066952
2025-02-03,495000,2025-03-24,495000,5,5.5,2520,8712,Saint Paul,673 Robert St S,55107,44.92559,-93.081154
2024-12-20,140000,2025-01-17,135000,2,1,996,5881,Saint Paul,1565 7th St E,55106,44.967002,-93.034376
2025-03-05,175000,2025-04-24,170000,3,1,1036,3920,Saint Paul,559 Forest St,55106,44.958175,-93.061231
2025-04-01,279900,2025-05-12,280000,4,3,2120,5227,Saint Paul,947 6th St E,55106,44.960621,-93.06045
2025-04-11,335000,2025-05-27,355000,4,3,2510,7841,Saint Paul,1236 Churchill St,55103,44.978438,-93.14455
2024-11-08,269900,2025-02-07,275800,3,1,1397,4617,Saint Paul,1501 Margaret St,55106,44.961582,-93.03704
2025-03-24,315000,2025-05-27,335000,3,1.5,1943,6534,Saint Paul,1450 Nevada Ave E,55106,44.985407,-93.039067
2025-03-13,509900,2025-05-27,497000,4,3,2074,479,Saint Paul,1993 Randolph Ave,55105,44.927333,-93.184483
,,2025-05-19,225000,3,1.5,1380,4500,Saint Paul,2059 Iglehart Ave,55104,44.94967,-93.187138
2025-04-01,560000,2025-05-16,547500,4,2,2030,4922,Saint Paul,1756 Jefferson Ave,55105,44.930391,-93.17447
2025-02-01,169900,2025-03-13,160000,2,1,1310,4487,Saint Paul,911 Jenks Ave,55106,44.971483,-93.061994
,,2025-05-20,63000,4,2,1946,7057,Saint Paul,1341 Barclay St,55106,44.981995,-93.038415
2025-04-22,575000,2025-05-15,630000,4,2,2144,5532,Saint Paul,974 Osceola Ave,55105,44.93548,-93.141083
2025-02-11,480000,2025-05-02,480000,4,2,2558,9148,Saint Paul,868 Mound St,55106,44.949409,-93.061856
2024-12-07,81000,2025-01-03,81000,2,1.5,1204,4922,Saint Paul,527 Edmund Ave,55103,44.958712,-93.122378
2025-03-24,284900,2025-05-12,288000,2,2,1546,14593,Saint Paul,1868 Minnehaha Ave E,55119,44.962593,-93.021611
2025-03-11,359900,2025-05-14,360000,3,1,1667,6229,Saint Paul,905 Iowa Ave W,55117,44.989444,-93.138198
2025-03-21,450000,2025-05-15,485000,3,2.5,1730,5009,Saint Paul,2156 Stanford Ave,55105,44.932249,-93.191512
2025-04-02,280000,2025-05-16,285000,3,2,1373,6229,Saint Paul,745 Manomin Ave,55107,44.923481,-93.100988
2024-09-14,350000,2025-02-19,350000,4,1.5,1966,7405,Saint Paul,12 Winthrop St S,55119,44.94064,-93.009625
2024-11-01,299900,2024-12-05,298000,3,2,1561,3703,Saint Paul,681 Simpson St,55104,44.961633,-93.164016
2025-04-25,330000,2025-05-30,365000,3,1,1615,4008,Saint Paul,1033 Churchill St,55103,44.972212,-93.145802
2025-03-01,359900,2025-05-29,370000,3,2.5,1869,5184,Saint Paul,1597 Merrill St,55108,44.989338,-93.153058
2025-03-20,385000,2025-05-08,385000,4,2,2025,5009,Saint Paul,680 Fairview Ave N,55104,44.96161,-93.176868
2025-04-09,250000,2025-05-20,261000,4,2,1726,4356,Saint Paul,867 Jordan Ave,55119,44.967614,-93.017567
2025-03-26,244900,2025-05-16,255000,3,1,1073,5227,Saint Paul,948 Margaret St,55106,44.960991,-93.060455
2025-04-25,775000,2025-05-19,823000,6,2.5,3364,14375,Saint Paul,1737 Summit Ave,55105,44.942037,-93.173835
2025-03-17,359900,2025-05-14,355000,5,3,2018,4966,Saint Paul,253 Warwick St,55105,44.933769,-93.163574
2025-03-28,219900,2025-05-16,219900,2,1,1093,6665,Saint Paul,1165 Breen St,55106,44.976325,-93.026947
2025-04-28,325000,2025-05-30,350000,3,2,1842,8102,Saint Paul,1471 Etna St,55106,44.985606,-93.042219
2024-10-15,349000,2024-12-06,355000,4,1.5,2002,8102,Saint Paul,1547 Hoyt Ave E,55106,44.988643,-93.034986
,,2025-04-10,298000,2,2,1140,7505,Saint Paul,525 Wheelock Pkwy E,55130,44.987525,-93.078668
2025-03-10,569900,2025-04-28,595000,5,3.5,2655,6186,Saint Paul,1766 Sheridan Ave,55116,44.901405,-93.175245
2025-01-18,300000,2025-02-24,290000,3,2,1504,10324,Saint Paul,1047 Breen St,55106,44.973039,-93.027041
2025-01-27,275000,2025-03-03,300000,2,1.5,1252,6360,Saint Paul,480 Orleans St,55107,44.931222,-93.09969
2025-02-04,288000,2025-03-03,353000,3,2,1283,4966,Saint Paul,1757 Englewood Ave,55104,44.964358,-93.174478
2024-05-15,1250000,2025-02-28,1200000,4,3.5,3766,18731,Saint Paul,1335 Beechwood Pl,55116,44.915441,-93.15643
2024-09-06,199000,2024-12-27,200000,3,1,1008,3049,Saint Paul,806 Agate St,55117,44.965511,-93.093761
2025-02-25,314900,2025-04-23,333000,4,2,1734,8102,Saint Paul,753 Hall Ave,55107,44.923373,-93.087018
2025-01-09,255000,2025-03-18,253000,3,1,1140,5079,Saint Paul,1605 Reaney Ave,55106,44.964202,-93.032609
,,2025-04-01,350000,3,1.5,1329,7501,Saint Paul,1970 Dayton Ave,55104,44.946955,-93.183528
2025-02-18,485000,2025-03-26,500000,4,2,2302,9191,Saint Paul,914 Arlington Ave W,55117,44.984322,-93.139046
,,2025-01-03,230000,2,1,691,5097,Saint Paul,1499 Holton St,55108,44.986254,-93.160872
2025-01-09,219900,2025-02-28,219900,2,2,1408,7492,Saint Paul,740 Bidwell St,55107,44.923767,-93.090548
2024-10-23,625000,2024-12-12,630000,4,2.5,2415,7405,Saint Paul,297 Saratoga St S,55105,44.932581,-93.164836
2025-01-13,280000,2025-02-07,280000,4,2,1606,9148,Saint Paul,1479 Winthrop St N,55119,44.985749,-93.010495
2025-03-12,245000,2025-04-18,285000,3,2,1511,4879,Saint Paul,1079 Rose Ave E,55106,44.97689,-93.054873
,,2025-02-18,300000,3,2,1315,7100,Saint Paul,1737 Orange Ave E,55106,44.979586,-93.026988
2025-01-23,357500,2025-03-18,362500,3,1,1512,4966,Saint Paul,1261 Watson Ave,55116,44.924492,-93.153471
,,2024-12-20,275000,3,2,1542,6599,Saint Paul,292 Thomas Ave,55103,44.959168,-93.112428
2025-01-11,225000,2025-02-18,225000,3,2,1354,5401,Saint Paul,1267 4th St E,55106,44.958847,-93.046924
,,2025-01-08,275000,3,1,1321,5053,Saint Paul,1107 Hawthorne Ave E,55106,44.978688,-93.053781
2024-09-04,475000,2024-12-06,460000,4,3,1848,5532,Saint Paul,2169 Watson Ave,55116,44.924673,-93.191885
,,2025-01-24,147000,3,1,1108,4961,Saint Paul,862 3rd St E,55106,44.956482,-93.064129
,,2024-12-20,335000,5,4.5,2260,10001,Saint Paul,732 Jenks Ave,55106,44.970931,-93.069663
2024-11-07,325000,2024-12-06,316000,3,2,1260,5053,Saint Paul,1624 Hartford Ave,55116,44.923111,-93.168915
,,2025-05-05,805000,4,3.5,3528,17302,Saint Paul,1625 Edgcumbe Rd,55116,44.915312,-93.153394
2024-04-12,1275000,2025-01-17,1265000,6,5.5+,7910,10759,Saint Paul,485 Summit Ave,55102,44.941659,-93.120488
2025-02-12,345000,2025-03-24,335000,3,2,1824,5968,Saint Paul,1868 Wilson Ave,55119,44.953846,-93.02136
2024-11-15,324999,2025-03-11,321000,3,1.5,1600,7187,Saint Paul,2218 Upper Afton Rd E,55119,44.940774,-93.00661
,,2025-01-30,221000,2,2,1120,4879,Saint Paul,923 Geranium Ave E,55106,44.975977,-93.061526
2025-02-07,150000,2025-01-27,150000,3,1,1112,4966,Saint Paul,1739 Race St,55116,44.915377,-93.147688
2025-03-01,199900,2025-04-01,210000,2,1,850,4879,Saint Paul,1783 Ames Ave,55119,44.972354,-93.024964
2025-03-20,379900,2025-04-25,400000,3,1.5,1151,6200,Saint Paul,1243 Randolph Ave,55105,44.927213,-93.152704
,,2025-03-27,385000,5,2,2126,9919,Saint Paul,1836 Marshall Ave,55104,44.948034,-93.177864
2025-01-28,359900,2025-04-14,359150,3,2,1420,4966,Saint Paul,1422 Juliet Ave,55105,44.92944,-93.16035
,,2025-03-26,254000,2,2,1183,6098,Saint Paul,1611 Ross Ave,55106,44.96609,-93.032438
2025-01-10,145000,2025-03-07,145000,2,1,1002,4835,Saint Paul,355 Burgess St,55117,44.968644,-93.115053
2025-01-01,275000,2025-02-10,276000,3,2,1676,4530,Saint Paul,1027 Conway St,55106,44.956105,-93.057127
2024-09-25,524900,2024-12-13,525000,3,3,2969,6273,Saint Paul,1828 Montreal Ave,55116,44.91224,-93.177657
2024-11-16,219900,2025-02-07,210000,2,1,1701,4792,Saint Paul,1191 Maryland Ave E,55106,44.977799,-93.05007
2025-02-21,297997,2025-04-03,305000,4,2,1800,5053,Saint Paul,900 Palace Ave,55102,44.928415,-93.138159
2025-02-12,279900,2025-03-14,277000,4,1,1560,12415,Saint Paul,565 Hazel St N,55119,44.958344,-93.020781
,,2025-04-15,215000,4,1.5,1538,4879,Saint Paul,664 Orange Ave E,55106,44.979006,-93.072422
2025-03-11,260000,2025-04-18,258000,2,1,1085,8973,Saint Paul,2056 Nokomis Ave,55119,44.966266,-93.014099
2024-11-15,240000,2025-01-21,244000,3,2,980,5140,Saint Paul,1915 4th St E,55119,44.958822,-93.019431
2025-01-17,220000,2025-02-28,217000,4,2,1434,4792,Saint Paul,1222 Minnehaha Ave E,55106,44.962834,-93.049063
2024-09-20,259900,2025-02-03,287000,3,1,1428,4792,Saint Paul,115 Winifred St W,55107,44.931618,-93.090538
2025-02-04,260000,2025-03-03,286000,2,2,1271,4792,Saint Paul,1354 Blair Ave,55104,44.96087,-93.157474
2025-02-21,235000,2025-03-25,230000,4,2,1969,6011,Saint Paul,422 Minnehaha Ave E,55130,44.962739,-93.082782
2024-09-08,164900,2024-12-27,165000,4,2,1742,6926,Saint Paul,1011 Minnehaha Ave E,55106,44.963315,-93.057829
,,2025-02-27,205024,3,1,1424,4796,Saint Paul,1611 Edmund Ave,55104,44.958626,-93.168313
2024-01-27,1294349,2025-02-28,1269421,5,3.5,3547,7405,Saint Paul,2103 Juliet Ave,55105,44.930033,-93.189158
2024-11-02,269000,2024-12-16,275000,3,1,1250,4922,Saint Paul,1266 Lafond Ave,55104,44.959984,-93.153617
2024-10-25,260000,2025-01-24,262250,2,2,1447,4966,Saint Paul,1886 Orange Ave E,55119,44.979049,-93.020854
2025-02-12,440000,2025-03-21,460000,3,2.5,2140,5968,Saint Paul,1447 Portland Ave,55104,44.94319,-93.161235
2024-10-17,260000,2025-01-03,249000,3,2,1222,12763,Saint Paul,212 Acker St E,55117,44.963979,-93.091595
,,2025-01-17,385000,3,1,1218,5079,Saint Paul,1616 Hartford Ave,55116,44.92311,-93.168606
2025-02-05,385000,2025-03-14,385000,3,1,1248,5227,Saint Paul,1809 Stanford Ave,55105,44.932729,-93.176668
,,2025-03-27,268000,3,1,885,11718,Saint Paul,857 Iroquois Ave,55119,44.967587,-93.01682
,,2024-12-31,245500,2,1,1150,5118,Saint Paul,967 Bayard Ave,55102,44.922642,-93.140863
,,2025-03-21,175000,2,1,1277,7100,Saint Paul,2051 Ivy Ave E,55119,44.981395,-93.013684
,,2025-01-03,319900,3,2,1240,5001,Saint Paul,1952 Nevada Ave E,55119,44.985385,-93.018012
,,2025-03-04,215000,1,1,693,5040,Saint Paul,1875 Cottage Ave E,55119,44.983175,-93.021246
,,2025-01-29,250000,5,2.5,3013,4800,Saint Paul,1946 Wellesley Ave,55105,44.93134,-93.182643
2024-07-11,349900,2025-03-11,345000,3,2,1638,3964,Saint Paul,62 Pascal St S,55105,44.939606,-93.16163
2025-01-02,254900,2025-02-21,250000,3,1,1059,6098,Saint Paul,1941 Hawthorne Ave E,55119,44.978663,-93.018477
2025-02-17,325000,2025-04-04,344100,2,1.5,1360,4356,Saint Paul,1185 Randolph Ave,55105,44.927256,-93.149888
2025-03-11,1225000,2025-04-04,1355000,5,3.5,4368,9583,Saint Paul,501 Mount Curve Blvd,55116,44.92632,-93.195505
2024-12-06,224900,2025-01-17,240000,3,1.5,1064,5663,Saint Paul,341 Rose Ave E,55130,44.976682,-93.085994
2025-02-28,535900,2025-04-18,535000,7,2.5+,3834,8973,Saint Paul,990 Ashland Ave,55104,44.94364,-93.142145
2025-03-11,275000,2025-04-30,262000,2,2,1160,5401,Saint Paul,2091 Waukon Ave,55119,44.965506,-93.012122
2025-01-21,294999,2025-03-20,310000,4,1,1800,4835,Saint Paul,861 Hawthorne Ave E,55106,44.97868,-93.064236
2024-11-01,449900,2024-12-17,445000,3,2,1780,4966,Saint Paul,1727 Eleanor Ave,55116,44.920916,-93.173307
,,2025-01-27,184854,5,3,1642,5942,Saint Paul,944 Algonquin Ave,55119,44.969701,-93.018515
2024-12-07,360000,2025-02-03,350000,3,2,1584,5602,Saint Paul,1822 Chelton Ave W,55104,44.964492,-93.177595
2024-11-20,600000,2025-04-22,575000,3,3,2066,10890,Saint Paul,2019 Ramlow Pl,55116,44.905511,-93.185581
,,2024-12-30,205000,4,1,912,5097,Saint Paul,1182 Ross Ave,55106,44.965554,-93.05058
,,2025-01-28,255000,3,1,1441,4918,Saint Paul,1245 5th St E,55106,44.959767,-93.047868
2025-03-29,529900,2025-04-24,535000,4,2,2351,6926,Saint Paul,985 Iowa Ave W,55117,44.989469,-93.141711
2025-01-04,130000,2025-01-24,125000,2,1,700,6970,Saint Paul,1365 Alaska Ave,55116,44.916396,-93.147046
2025-01-03,215000,2025-01-31,227700,3,1,1458,6186,Saint Paul,1617 Arlington Ave E,55106,44.985003,-93.032106
2025-03-21,325000,2025-04-28,351500,2,1,1349,5184,Saint Paul,1591 Fernwood St,55108,44.989188,-93.151762
2025-02-03,695000,2025-04-10,686500,4,2.5,2096,7405,Saint Paul,2324 Brewster St,55108,44.976619,-93.189709
2024-12-04,219900,2025-04-02,219900,2,1.5,1145,4792,Saint Paul,286 Bates Ave,55106,44.955447,-93.067986
2025-02-14,370000,2025-03-21,370000,4,2,2158,6839,Saint Paul,1545 Etna St,55106,44.987934,-93.042202
2025-03-07,575000,2025-04-15,615000,4,2.5,2159,7710,Saint Paul,2119 Iglehart Ave,55104,44.949978,-93.189693
2024-08-09,309000,2025-03-21,290000,3,2,1858,7318,Saint Paul,2044 Fremont Ave E,55119,44.957385,-93.013994
2024-10-18,239000,2025-03-13,162000,2,1,1111,6098,Saint Paul,1294 Grand Ave,55105,44.939717,-93.154928
,,2025-04-22,71500,1,1,944,4090,Saint Paul,337 Stinson St,55117,44.96955,-93.114285
,,2025-03-11,320000,4,2.5,1684,6839,Saint Paul,1618 Payne Ave,55130,44.989983,-93.073325
2025-03-25,400000,2025-03-25,386600,3,2,1690,6098,Saint Paul,2082 Juno Ave,55116,44.925901,-93.188392
2024-10-03,275000,2025-03-25,275000,2,1.5,1303,13940,Saint Paul,1410 Mechanic Ave,55106,44.972338,-93.042436
2024-10-08,259900,2024-12-09,274900,2,2,1174,3790,Saint Paul,657 Bidwell St,55107,44.926139,-93.091334
2024-10-30,295000,2025-01-06,275000,4,3,1741,9278,Saint Paul,1024 Kilburn St,55103,44.971908,-93.140176
2024-12-18,360000,2025-03-17,358000,3,2,1858,10759,Saint Paul,1054 Saint Paul Ave,55116,44.910009,-93.182724
2025-01-31,215000,2025-02-27,220000,3,1,1323,6098,Saint Paul,612 Orleans St,55107,44.927438,-93.099659
,,2025-01-07,175000,4,1.5,1425,5009,Saint Paul,611 Cook Ave E,55130,44.973174,-93.074652
